     3.03           OBSERVATION DATA    M                   RINEX VERSION / TYPE
sbf2rin-13.8.0                          20230612 091336 UTC PGM / RUN BY / DATE 
SEPT                                                        MARKER NAME         
Unknown                                                     MARKER NUMBER       
Unknown             Unknown                                 OBSERVER / AGENCY   
3047871             SEPT ASTERX4        4.10.0              REC # / TYPE / VERS 
Unknown             Unknown                                 ANT # / TYPE        
  4198172.1803   151325.1859  4783373.8774                  APPROX POSITION XYZ 
        0.0000        0.0000        0.0000                  ANTENNA: DELTA H/E/N
G   12 C1C L1C D1C S1C C2W L2W D2W S2W C2L L2L D2L S2L      SYS / # / OBS TYPES 
E    8 C1C L1C D1C S1C C7Q L7Q D7Q S7Q                      SYS / # / OBS TYPES 
S    4 C1C L1C D1C S1C                                      SYS / # / OBS TYPES 
R    8 C1C L1C D1C S1C C2C L2C D2C S2C                      SYS / # / OBS TYPES 
C    8 C2I L2I D2I S2I C7I L7I D7I S7I                      SYS / # / OBS TYPES 
SEPTENTRIO RECEIVERS OUTPUT ALIGNED CARRIER PHASES.         COMMENT             
NO FURTHER PHASE SHIFT APPLIED IN THE RINEX ENCODER.        COMMENT             
G L1C                                                       SYS / PHASE SHIFT   
G L2W                                                       SYS / PHASE SHIFT   
G L2L  0.00000                                              SYS / PHASE SHIFT   
E L1C  0.00000                                              SYS / PHASE SHIFT   
E L7Q  0.00000                                              SYS / PHASE SHIFT   
S L1C                                                       SYS / PHASE SHIFT   
R L1C                                                       SYS / PHASE SHIFT   
R L2C                                                       SYS / PHASE SHIFT   
C L2I                                                       SYS / PHASE SHIFT   
C L7I                                                       SYS / PHASE SHIFT   
     1.000                                                  INTERVAL            
  2023     6     9    15    28   52.0000000     GPS         TIME OF FIRST OBS   
  2023     6     9    15    37    1.0000000     GPS         TIME OF LAST OBS    
    41                                                      # OF SATELLITES     
 C1C    0.000 C2C    0.000                                  GLONASS COD/PHS/BIS 
DBHZ                                                        SIGNAL STRENGTH UNIT
  9 R01  1 R07  5 R08  6 R15  0 R16 -1 R17  4 R22 -3 R23  3 GLONASS SLOT / FRQ #
    R24  2                                                  GLONASS SLOT / FRQ #
                                                            END OF HEADER       
> 2023 06 09 15 28 52.0000000  0 36
C06  39172045.814 5 203979103.35105      4012.612 5        35.563    39172038.411 5                      3102.288 5        33.156
C09  39034892.915 6 203264927.51406      4591.780 6        38.094    39034897.974 6                      3551.801 6        37.344
C16                                                                  39320364.287 5                      2969.345 5        32.094
C20  23713677.532 8 123483348.82708      6435.139 8        48.125
C27  24315231.750 6 126615784.54306       440.284 6        41.750
C29  23357604.976 8 121629184.45508      5885.114 8        48.406
C30  21676706.037 8 112876291.66708      2711.265 8        51.969
C32  21705732.966 8 113027449.58008      3619.208 8        51.563
E02  27299503.728 5 143459920.66705      2403.236 5        34.406    27299514.801 5 109923838.37705      1841.706 5        35.063
E04  24297620.803 7 127684864.80707      5411.381 7        44.594    24297628.165 7  97836479.25007      4146.522 7        43.406
E10  23589833.223 7 123965406.57907      2777.431 7        47.563    23589839.977 7  94986510.42807      2128.102 7        44.125
E11  22627217.364 7 118906829.34407      4199.003 7        45.031    22627221.162 7  91110443.98607      3217.264 7        43.688
E12  24910619.045 6 130906176.38206      1698.304 6        36.250    24910624.350 5 100304755.29105      1300.809 5        35.969
E19  25737616.260 6 135252086.93706      2230.828 6        38.656    25737622.375 5 103634738.40905      1709.275 5        35.094
E30  28509365.068 5 149817740.91305      4686.394 5        33.938    28509347.139 4                      3590.967 4        26.719
E36  26193056.075 7 137645436.72207      6016.290 7        44.531    26193065.699 7 105468630.28607      4610.032 7        42.219
G01  20061839.649 8 105425678.28308      2595.593 8        49.656    20061845.404 8  82149899.88708      2022.540 8        49.438    20061845.641 7  82149903.89607      2022.585 7        45.031
G02  21224795.891 7 111537055.53207      2226.717 7        44.813    21224798.082 5  86912000.58805      1735.112 5        31.938
G03  20398014.210 8 107192293.52908      4779.558 8        49.875    20398020.345 8  83526483.95308      3724.331 8        52.375    20398020.890 7  83526487.94407      3724.337 7        46.313
G04  23698429.631 5 124536091.20705      7301.746 5        34.750    23698439.411 1  97041143.26701      5689.607 1        10.656    23698437.783 5                      5689.058 5        32.156
G14                                                                                                                                  24430786.475 4                       723.703 4        26.594
G17  22009718.349 7 115661848.56207      5441.503 7        46.781    22009721.680 5  90126133.85705      4240.136 5        34.375    22009721.595 6  90126131.83006      4240.166 6        41.188
G19  23327931.249 6 122589130.50906      6893.858 6        41.906    23327933.570 4  95523994.46104      5371.831 4        25.281
G21  21821431.248 7 114672391.13907      1632.418 7        42.250    21821433.649 4  89355121.88404      1272.001 4        27.563
G32  24030339.534 6 126280317.21206       784.244 6        36.469    24030346.773 4  98400259.31604       611.097 4        25.906    24030348.173 6  98400445.25706       612.059 6        36.313
R01  20533193.176 7 109761677.30807      6827.835 7        46.469    20533202.439 6  85370245.08606      5310.532 6        41.000
R07  22125245.996 6                      -187.775 6        36.156    22125242.807 6  92118570.14906      -146.238 6        38.063
R08  19328481.083 8 103503139.84708      2757.853 8        50.844    19328486.601 7  80502464.07607      2145.222 7        47.125
R15  23737774.361 6 126847638.50906      1823.209 6        38.594    23737789.481 7  98659409.08107      1417.596 7        42.313
R16  23794241.697 6 127104605.53406      4833.087 6        40.125    23794259.664 5  98859160.53205      3757.610 5        34.906
R17  24307839.136 3                      7782.628 3        23.531    24307841.070 6 101170345.34006      6053.511 6        36.844
R22  23168522.884 6                      -251.198 6        36.563    23168537.101 4                      -195.470 4        27.281
R23  19372947.624 7 103632202.15907      2398.596 7        46.313
R24  20120420.041 8 107592928.23208      6225.511 8        50.969    20120427.150 7  83683418.64607      4841.834 7        46.625
S23  38778304.562 6 203781351.11806      3565.660 6        37.125
S36  38187993.948 7 200679260.55707      3569.058 7        45.375
> 2023 06 09 15 28 53.0000000  0 35
C06  39171274.526 6 203975091.32906      4011.559 6        36.281    39171268.389 5                      3103.094 5        31.844
C09  39034011.294 5 203260335.63805      4592.552 5        32.750    39034017.793 5                      3548.410 5        31.375
C20  23712442.050 8 123476914.23808      6433.717 8        48.406
C27  24315147.487 7 126615344.84907       439.104 7        46.563
C29  23356475.059 8 121623299.91808      5883.586 8        48.531
C30  21676185.142 8 112873580.73208      2710.142 8        51.531
C32  21705038.170 8 113023830.91008      3617.884 8        52.719
E02  27299046.182 5 143457517.54305      2402.115 5        33.469    27299057.627 5 109921996.92305      1840.769 5        35.656
E04  24296591.158 7 127679453.64307      5410.176 7        46.938    24296598.516 7  97832333.03407      4145.640 7        46.031
E10  23589304.834 8 123962629.75908      2776.040 8        48.156    23589311.427 7  94984382.71007      2127.310 7        45.031
E11  22626418.214 7 118902630.65907      4198.074 7        44.469    22626421.967 7  91107226.81107      3216.813 7        43.031
E12  24910296.332 6 130904479.25106      1696.250 6        39.688    24910301.579 6 100303454.85006      1299.899 6        38.031
E19  25737191.792 5 135249856.62405      2228.828 5        35.063    25737197.728 4 103633029.72104      1706.678 4        28.938
E30  28508471.799 5 149813054.52705      4685.590 5        33.313    28508454.782 4                      3590.436 4        24.156
E36  26191911.397 7 137639420.82007      6015.378 7        44.719    26191920.865 6 105464020.73206      4609.112 6        41.125
G01  20061345.888 8 105423083.51708      2593.884 8        50.094    20061351.630 8  82147877.99208      2021.208 8        49.938    20061351.943 7  82147881.98307      2021.372 7        45.156
G02  21224372.603 7 111534829.56707      2225.146 7        46.969    21224374.508 5  86910266.06805      1733.871 5        32.125
G03  20397104.682 8 107187514.48208      4778.229 8        50.063    20397110.915 8  83522760.01708      3723.286 8        52.313    20397111.568 7  83522764.00407      3723.357 7        46.375
G04  23697040.343 5 124528790.23505      7300.096 5        33.469    23697050.019 1  97035454.26501      5688.386 1        10.281    23697048.302 5                      5688.761 5        31.500
G14                                                                                                                                  24430610.239 4                       723.440 4        26.031
G17  22008682.985 7 115656407.56107      5440.076 7        46.844    22008686.289 5  90121894.10805      4239.025 5        34.344    22008686.276 6  90121892.09506      4239.119 6        41.313
G19  23326619.226 6 122582237.13506      6892.826 6        41.906    23326621.810 4  95518623.00404      5371.024 4        25.313
G21  21821120.855 7 114670759.22607      1631.142 7        45.281    21821123.068 4  89353850.25704      1271.029 4        27.188
G32  24030189.793 6 126279532.50306       783.798 6        36.875    24030197.389 4  98399647.85304       610.751 4        27.531    24030198.941 6  98399833.80506       610.688 6        36.781
R01  20531915.991 7 109754849.67907      6826.814 7        46.750    20531925.192 6  85364934.72706      5309.871 6        41.406
R07  22125278.738 6 118438376.01916      -188.650 6        37.000    22125277.945 6  92118716.58006      -146.862 6        40.656
R08  19327966.211 8 103500382.66908      2756.115 8        50.594    19327971.493 7  80500319.61307      2143.709 7        47.094
R15  23737433.798 6 126845816.23806      1821.333 6        37.063    23737448.591 7  98657991.74007      1416.594 7        42.531
R16  23793337.503 6 127099773.96606      4830.628 6        40.281    23793354.048 5  98855402.62205      3757.447 5        34.719
R17  24306383.337 4                      7783.420 4        29.875    24306387.354 6 101164291.55906      6053.731 6        37.438
R22  23168570.457 7 123675408.93917      -255.303 7        43.406    23168583.910 6                      -198.113 6        38.125
R23  19372499.425 8 103629804.35508      2396.912 8        48.188
R24  20119255.850 8 107586703.26108      6224.234 8        51.031    20119263.222 7  83678576.98307      4840.829 7        46.938
S23  38777628.069 7 203777785.69207      3564.964 7        43.563
S36  38187317.208 7 200675691.38507      3568.659 7        44.563
> 2023 06 09 15 28 54.0000000  0 37
C06  39170503.967 5 203971079.79705      4011.601 5        31.688    39170497.673 4                      3102.435 4        28.781
C09  39033129.602 6                      4591.052 6        38.500    39033136.620 6                      3549.907 6        38.625
C16  39318882.600 4                      3839.079 4        25.250    39318893.642 4                      2968.943 4        26.188
C20  23711206.545 8 123470480.03708      6433.896 8        48.375
C27  24315063.224 7 126614905.56207       439.033 7        47.156
C29  23355345.219 8 121617415.86708      5883.691 8        48.563
C30  21675664.578 8 112870870.49308      2709.864 8        51.438
C32  21704343.414 8 113020212.90008      3617.591 8        51.969
E02  27298589.437 5 143455115.04205      2401.980 5        34.406    27298600.426 5 109920156.12805      1840.314 5        35.406
E04  24295561.576 7 127674042.99907      5410.379 7        47.563    24295568.889 7  97828187.22907      4145.711 7        46.219
E10  23588776.619 8 123959853.43308      2776.187 8        48.969    23588783.172 7  94982255.43307      2126.892 7        47.156
E11  22625619.349 7 118898432.43507      4197.820 7        45.031    22625623.005 7  91104009.99707      3216.620 7        43.281
E12  24909972.900 7 130902782.75107      1696.444 7        42.781    24909978.572 6 100302154.99406      1299.400 6        41.750
E19  25736767.757 6 135247626.81806      2229.293 6        36.375    25736774.032 5 103631320.97605      1708.012 5        33.688
E30  28507578.471 5 149808368.79005      4685.438 5        33.813    28507562.232 4                      3589.531 4        26.688
E36  26190766.604 7 137633405.17407      6015.530 7        43.969    26190776.304 7 105459411.31407      4609.367 7        42.250
G01  20060852.293 8 105420489.43408      2593.745 8        50.250    20060857.980 8  82145856.63408      2021.089 8        50.406    20060858.508 7  82145860.65407      2020.916 7        46.469
G02  21223949.324 8 111532604.22208      2225.177 8        48.688    21223951.027 5  86908532.02305      1733.910 5        34.125
G03  20396195.436 8 107182736.08908      4778.055 8        50.250    20396201.620 8  83519036.59008      3723.162 8        52.313    20396202.273 7  83519040.58207      3723.224 7        46.656
G04  23695651.609 5 124521489.55105      7300.296 5        35.719    23695660.771 1  97029765.39401      5688.542 1         8.844    23695658.410 5                      5688.348 5        31.688
G14                                                                                                                                  24430436.253 4                       723.438 4        25.125
G17  22007647.773 7 115650967.22407      5439.917 7        47.125    22007651.010 5  90117654.88305      4238.891 5        34.281    22007651.221 6  90117652.89406      4238.878 6        41.438
G19  23325307.122 6 122575344.34106      6892.566 6        41.344    23325310.167 4  95513252.01304      5370.834 4        25.219
G21  21820810.421 8 114669127.89408      1631.132 8        48.156    21820812.648 4  89352579.07504      1271.020 4        29.563
G28  24351105.850 4                      5403.935 4        28.063                                                                    24351105.805 4                      4210.282 4        28.156
G32  24030039.756 5                       781.924 5        30.125                                                                    24030050.287 5  98399222.98205       610.732 5        31.906
R01  20530638.860 7 109748022.82507      6826.462 7        46.469    20530648.199 6  85359624.95606      5309.319 6        41.500
R07  22125312.038 5 118438565.05505      -189.351 5        34.188    22125313.115 5  92118863.61205      -147.837 5        33.219
R08  19327451.465 8 103497626.51208      2755.537 8        50.656    19327456.831 7  80498175.94407      2143.342 7        47.594
R15  23737093.288 6 126843994.81506      1821.192 6        37.063    23737107.840 7  98656575.08907      1416.244 7        42.656
R16  23792433.051 6 127094943.32506      4830.229 6        40.781    23792448.196 5  98851645.34105      3756.391 5        35.313
R17  24304927.605 4                      7782.789 4        29.656    24304932.570 6 101158237.98106      6053.665 6        37.469
R22  23168617.919 7 123675663.18907      -254.854 7        42.344    23168631.064 6                      -197.987 6        39.125
R23  19372051.221 8 103627407.45708      2396.444 8        48.281
R24  20118091.766 8 107580478.97108      6223.875 8        50.938    20118098.973 7  83673735.86207      4840.917 7        46.406
S23  38776950.868 7 203774220.48407      3565.027 7        43.156
S36  38186637.043 7 200672122.42907      3568.888 7        44.250
> 2023 06 09 15 28 55.0000000  0 37
C06  39169732.290 6 203967068.67406      4009.867 6        37.094    39169727.387 5                      3100.678 5        35.281
C09  39032247.990 6                      4589.431 6        39.438    39032255.724 6                      3548.710 6        39.000
C16  39318143.812 4                      3837.585 4        28.063    39318157.971 5                      2968.058 5        30.875
C20  23709971.335 8 123464046.40908      6432.265 8        48.656
C27  24314979.144 7 126614466.75107       437.423 7        47.375
C29  23354215.401 8 121611532.40408      5882.166 8        48.500
C30  21675144.215 8 112868161.04108      2708.065 8        51.406
C32  21703648.680 8 113016595.63408      3615.812 8        51.844
E02  27298132.590 5 143452713.19705      2400.283 5        33.719    27298143.055 5 109918315.75505      1839.217 5        34.906
E04  24294532.137 7 127668633.04407      5408.509 7        47.781    24294539.365 7  97824041.95307      4144.222 7        46.438
E10  23588248.265 8 123957077.65708      2774.417 8        48.969    23588254.939 7  94980128.52707      2125.829 7        46.688
E11  22624820.624 7 118894234.75807      4196.277 7        45.063    22624824.297 7  91100793.60207      3215.250 7        43.375
E12  24909649.883 7 130901086.76807      1694.554 7        43.063    24909655.685 6 100300855.43606      1298.499 6        41.469
E19  25736343.529 6 135245397.74006      2227.667 6        38.188    25736350.002 5 103629613.03005      1706.843 5        35.344
E30  28506684.746 5 149803683.74205      4683.462 5        34.750    28506670.966 4                      3589.734 4        28.063
E36  26189621.895 7 137627389.87307      6014.133 7        44.000    26189631.712 7 105454802.20407      4608.080 7        42.219
G01  20060358.818 8 105417896.10108      2591.871 8        50.250    20060364.483 8  82143835.85808      2019.642 8        50.781    20060364.993 7  82143839.86307      2019.542 7        46.250
G02  21223526.067 8 111530379.50108      2223.335 8        48.906    21223527.672 5  86906798.47005      1732.472 5        35.438
G03  20395286.404 8 107177958.48008      4776.163 8        50.125    20395292.481 8  83515313.77608      3721.687 8        52.375    20395293.142 7  83515317.77307      3721.635 7        46.781
G04  23694262.361 5 124514189.30005      7298.731 5        35.125    23694271.648 1  97024076.91401      5687.302 1         8.563    23694269.716 5                      5688.427 5        31.156
G14                                                                                                                                  24430259.763 4                       722.914 4        26.406
G17  22006612.785 7 115645527.67107      5438.085 7        47.688    22006615.866 5  90113416.27005      4237.480 5        34.375    22006616.161 6  90113414.25906      4237.458 6        41.250
G19  23323995.318 6 122568452.14006      6890.946 6        40.844    23323998.577 4  95507881.46904      5369.562 4        25.250
G21  21820499.916 7 114667497.11407      1629.383 7        47.844    21820502.339 5  89351308.33005      1269.657 5        31.250
G28  24350077.538 4                      5404.156 4        26.844
G32  24029890.798 5                       784.328 5        35.063                                                                    24029900.863 5  98398612.40505       609.093 5        32.094
R01  20529361.827 7 109741196.79807      6824.511 7        46.813    20529371.394 6  85354315.83406      5307.869 6        41.281
R07  22125346.733 6 118438754.32106      -190.881 6        37.031    22125348.020 5  92119010.79405      -148.375 5        35.406
R08  19326936.982 8 103494871.41908      2753.408 8        50.563    19326942.228 7  80496033.10207      2141.568 7        47.469
R15  23736753.655 6 126842174.38806      1818.832 6        38.938    23736766.968 7  98655159.19207      1414.686 7        42.188
R16  23791528.974 6 127090113.66206      4828.242 6        38.281    23791542.366 5  98847888.93305      3755.369 5        33.844
R17  24303472.190 4                      7782.548 4        27.781    24303477.593 6 101152184.50006      6052.428 6        38.250
R22  23168665.045 7 123675918.02107      -255.986 7        42.344    23168678.306 6  96192418.09616      -199.230 6        39.594
R23  19371602.999 8 103625011.49708      2394.456 8        48.250
R24  20116927.870 8 107574255.40708      6222.125 8        51.000    20116935.153 7  83668895.31907      4839.463 7        46.625
S23  38776270.958 7 203770655.54407      3563.650 7        43.031
S36  38185957.012 7 200668553.70507      3567.701 7        44.375
> 2023 06 09 15 28 56.0000000  0 37
C06  39168959.992 6 203963058.48906      4010.496 6        37.219    39168957.637 5                      3100.843 5        35.438
C09  39031366.432 6                      4589.892 6        39.250    39031374.452 6                      3549.177 6        39.000
C16  39317405.636 3                      3837.558 3        21.000    39317421.566 5                      2967.400 5        30.719
C20  23708736.174 8 123457613.80808      6432.696 8        48.875
C27  24314895.010 7 126614028.91407       438.080 7        47.313
C29  23353085.811 8 121605650.03808      5882.449 8        48.656
C30  21674624.107 8 112865452.85408      2708.177 8        51.406
C32  21702954.282 8 113012979.64208      3615.997 8        51.969
E02  27297675.894 5 143450312.58505      2400.591 5        34.750    27297686.230 5 109916476.34705      1839.436 5        35.406
E04  24293502.796 7 127663224.24407      5408.857 7        47.938    24293510.105 7  97819897.55107      4144.439 7        46.594
E10  23587720.091 8 123954302.95108      2774.830 8        49.063    23587726.854 7  94978002.44607      2126.154 7        46.563
E11  22624022.090 7 118890038.13407      4196.839 7        45.250    22624025.705 7  91097577.99307      3215.765 7        43.250
E12  24909327.180 7 130899391.76207      1695.120 7        43.250    24909332.999 6 100299556.66506      1298.802 6        41.594
E19  25735919.749 6 135243169.86006      2227.916 6        38.281    25735925.909 5 103627905.94705      1707.014 5        33.719
E30                                                                  28505779.441 4                      3588.424 4        27.656
E36  26188477.276 7 137621375.41707      6014.684 7        44.031    26188487.165 7 105450193.71607      4608.650 7        42.344
G01  20059865.580 8 105415304.01208      2592.163 8        50.250    20059871.214 8  82141816.04808      2019.867 8        51.031    20059871.692 7  82141820.05607      2019.871 7        46.031
G02  21223103.078 8 111528155.93308      2223.682 8        48.844    21223104.545 6  86905065.81606      1732.741 6        36.438
G03  20394377.502 8 107173182.11708      4776.324 8        49.969    20394383.574 8  83511591.93408      3721.810 8        52.375    20394384.196 7  83511595.93907      3721.782 7        46.531
G04  23692873.748 6 124506889.95006      7299.500 6        36.438    23692882.570 1  97018389.11401      5688.003 1         8.844    23692880.343 5                      5687.630 5        32.219
G14                                                                                                                                  24430083.666 4                       721.385 4        25.656
G17  22005578.132 7 115640089.36407      5438.316 7        47.844    22005580.967 5  90109178.62305      4237.652 5        34.469    22005581.481 6  90109176.62506      4237.721 6        41.438
G19  23322683.898 6 122561561.08506      6891.153 6        40.781    23322687.314 4  95502511.80804      5369.726 4        25.313
G21  21820189.590 8 114665867.36308      1629.826 8        48.281    21820192.210 5  89350038.38805      1270.002 5        32.406
G28  24349046.851 4                      5402.619 4        25.906
G32  24029742.492 5 126277145.75915       782.391 5        34.656    24029749.601 4  98397806.89914       609.665 4        28.156    24029752.038 5  98398002.84505       609.551 5        32.844
R01  20528085.219 7 109734372.15607      6824.647 7        46.625    20528094.572 6  85349007.77006      5308.134 6        41.125
R07  22125381.084 6 118438944.81406      -190.606 6        37.031    22125383.954 6  92119158.91806      -148.015 6        37.219
R08  19326422.938 8 103492117.93008      2753.359 8        50.594    19326428.179 7  80493891.50207      2141.460 7        47.625
R15  23736413.485 6 126840355.46706      1818.840 6        39.438    23736426.414 7  98653744.46007      1414.653 7        42.438
R16  23790624.990 7 127085285.77307      4827.859 7        42.500    23790637.296 6  98844133.89506      3754.817 6        38.063
R17                                                                  24302023.140 6 101146131.61006      6052.940 6        38.594
R22  23168712.722 7 123676173.84807      -255.602 7        42.375    23168726.010 6  96192617.09306      -198.959 6        39.781
R23  19371155.192 8 103622617.02808      2394.368 8        48.125
R24  20115764.228 8 107568033.07908      6222.352 8        51.469    20115771.440 7  83664055.73707      4839.588 7        46.719
S23  38775592.573 7 203767091.33007      3564.500 7        43.469
S36  38185277.223 7 200664985.76907      3568.205 7        44.000
> 2023 06 09 15 28 57.0000000  0 37
C05  40341020.494 5 210066279.07015      3513.767 5        34.438    40341029.900 6 162436609.91216      2716.982 6        36.031
C06  39168187.984 6 203959048.95106      4009.406 6        37.656    39168187.986 5 157714059.34515      3100.190 5        34.906
C09  39030484.995 6                      4588.920 6        39.094    39030493.238 6 157159602.61716      3548.403 6        39.344
C16  39316671.539 4                      3837.072 4        26.281    39316684.410 5                      2967.010 5        30.125
C20  23707501.130 8 123451181.88508      6431.542 8        48.719
C27  24314810.935 7 126613591.73807       436.877 7        47.156
C29  23351956.315 8 121599768.40408      5881.351 8        48.625
C30  21674104.187 8 112862745.57508      2706.902 8        51.406
C32  21702260.125 8 113009364.55408      3614.676 8        52.031
E02  27297219.323 5 143447912.84705      2399.366 5        34.094    27297229.740 5 109914637.55905      1838.579 5        35.625
E04  24292473.639 7 127657816.25607      5407.553 7        47.813    24292480.997 7  97815753.77007      4143.475 7        46.531
E10  23587192.189 8 123951528.94508      2773.685 8        49.156    23587199.010 7  94975876.90807      2125.245 7        46.625
E11  22623223.704 7 118885842.19007      4195.614 7        45.094    22623227.203 7  91094362.92907      3214.844 7        43.188
E12  24909004.632 7 130897697.41807      1694.056 7        43.063    24909010.452 6 100298258.39206      1298.055 6        41.625
E19  25735496.126 6 135240942.83006      2226.672 6        38.500    25735501.865 5 103626199.49505      1706.276 5        34.375
E30                                                                  28504888.551 4                      3587.481 4        28.156
E36  26187332.702 7 137615361.44107      6013.729 7        43.844    26187342.854 7 105445585.60107      4608.068 7        42.594
G01  20059372.579 8 105412712.84708      2590.802 8        50.531    20059378.110 8  82139796.95908      2018.811 8        51.313    20059378.544 7  82139800.95407      2018.761 7        46.219
G02  21222680.108 8 111525933.15508      2222.394 8        48.750    21222681.551 6  86903333.78006      1731.736 6        37.031
G03  20393468.721 8 107168406.65608      4775.075 8        49.969    20393474.842 8  83507870.79508      3720.842 8        52.375    20393475.169 7  83507874.78407      3720.885 7        46.563
G04  23691485.009 5 124499591.13505      7298.278 5        35.000    23691493.545 1  97012701.68201      5686.994 1         8.469    23691492.137 5                      5687.045 5        31.969
G14                                                                                                                                  24429908.302 4                       721.737 4        26.688
G17  22004543.425 7 115634651.96707      5437.029 7        47.250    22004546.260 5  90104941.69505      4236.648 5        34.500    22004546.600 6  90104939.69306      4236.542 6        41.219
G19  23321372.792 6 122554670.77406      6890.027 6        41.250    23321376.199 4  95497142.73404      5368.850 4        25.188
G21  21819879.519 8 114664238.30308      1628.808 8        48.281    21819882.210 5  89348768.98805      1269.201 5        33.344
G32  24029594.092 5 126276364.21105       781.424 5        33.375    24029600.888 4  98397197.89404       608.914 4        27.438    24029603.089 5  98397393.89005       608.752 5        34.219
R01  20526808.817 7 109727548.48707      6823.185 7        46.813    20526817.686 6  85343700.46806      5307.057 6        41.031
R07  22125416.244 6 118439136.02006      -191.555 6        37.063    22125419.893 6  92119307.61606      -148.997 6        37.844
R08  19325908.938 8 103489365.65008      2751.743 8        50.469    19325914.412 7  80491750.83507      2140.245 7        47.406
R15  23736074.192 6 126838537.70506      1817.193 6        39.813    23736085.864 7  98652330.64207      1413.472 7        42.406
R16  23789721.638 7 127080459.05307      4826.041 7        42.656    23789732.843 6  98840379.79506      3753.602 6        38.313
R17  24300558.968 5                      7781.720 5        30.813    24300569.165 6 101140078.98506      6052.562 6        39.531
R22  23168759.889 7 123676430.36307      -256.877 7        42.125    23168773.485 6  96192816.57006      -199.629 6        39.750
R23  19370707.659 8 103620223.65908      2392.851 8        48.406
R24  20114600.864 8 107561811.66908      6220.968 8        51.563    20114608.169 7  83659216.86507      4838.493 7        46.438
S23  38774912.354 7 203763527.58107      3563.626 7        43.094
S36  38184597.532 7 200661418.22407      3567.353 7        44.250
> 2023 06 09 15 28 58.0000000  0 37
C05  40340346.062 5 210062765.48605      3513.583 5        34.000    40340355.396 6 162433892.99406      2716.847 6        36.031
C06  39167416.048 6 203955039.92506      4008.845 6        37.219    39167418.179 5 157710959.31205      3100.013 5        35.313
C09  39029603.678 6                      4588.515 6        39.063    39029612.092 6 157156054.29506      3548.401 6        39.313
C16  39315935.868 4                      3836.215 4        29.094    39315948.310 5                      2966.638 5        30.406
C20  23706265.996 8 123444750.56508      6430.989 8        48.469
C27  24314727.020 7 126613155.08907       436.355 7        47.125
C29  23350826.984 8 121593887.41108      5880.728 8        48.656
C30  21673584.513 8 112860039.13808      2706.054 8        51.625
C32  21701566.085 8 113005750.28008      3613.875 8        52.031
E02  27296762.189 5 143445513.84605      2398.789 5        33.438    27296773.370 5 109912799.37705      1837.933 5        34.969
E04  24291444.598 7 127652408.99607      5406.860 7        47.781    24291451.938 7  97811610.54307      4142.999 7        46.531
E10  23586664.475 8 123948755.55708      2773.067 8        49.188    23586671.309 7  94973751.84607      2124.777 7        46.750
E11  22622425.457 7 118881646.86807      4195.108 7        45.031    22622428.813 7  91091148.33407      3214.365 7        43.125
E12  24908682.309 7 130896003.60407      1693.554 7        43.000    24908688.088 6 100296960.54006      1297.778 6        41.844
E19  25735072.582 6 135238716.55206      2225.837 6        38.563    25735078.254 5 103624493.64805      1705.640 5        34.188
E30                                                                  28503998.210 4                      3587.190 4        28.031
E36  26186188.329 7 137609347.87907      6013.297 7        44.344    26186198.557 7 105440977.82307      4607.693 7        42.563
G01  20058879.637 8 105410122.49208      2589.926 8        50.469    20058885.168 8  82137778.49908      2018.129 8        51.531    20058885.427 7  82137782.49407      2018.169 7        46.031
G02  21222257.284 8 111523711.08708      2221.715 8        48.813    21222258.710 6  86901602.29806      1731.209 6        37.563
G03  20392560.123 8 107163632.01708      4774.304 8        49.781    20392566.253 8  83504150.29708      3720.237 8        52.406    20392566.463 7  83504154.30007      3720.221 7        46.656
G04  23690095.600 5 124492292.81105      7298.145 5        34.594    23690104.637 1  97007014.67101      5686.868 1         8.938    23690103.032 5                      5686.573 5        31.750
G14                                                                                                                                  24429731.812 4                       720.944 4        28.406
G17  22003508.826 7 115629215.40907      5436.203 7        47.031    22003511.719 5  90100705.41805      4235.998 5        34.500    22003511.916 6  90100703.41506      4236.013 6        41.063
G19  23320061.779 6 122547781.14206      6889.429 6        40.844    23320065.200 4  95491774.19004      5368.383 4        24.969
G21  21819569.555 8 114662609.85808      1628.216 8        48.094    21819572.331 5  89347500.07005      1268.741 5        33.938
G32  24029445.227 5 126275583.41405       780.696 5        34.625    24029452.399 4  98396589.47504       608.336 4        26.938    24029453.991 5  98396785.47105       608.119 5        34.250
R01  20525532.670 7 109720725.70407      6822.329 7        46.563    20525541.016 6  85338393.87406      5306.286 6        41.094
R07  22125451.432 6 118439327.86406      -192.348 6        37.719    22125455.241 6  92119456.84206      -149.132 6        36.375
R08  19325395.180 8 103486614.47708      2750.648 8        50.500    19325400.587 7  80489611.04407      2139.358 7        47.406
R15  23735734.344 6 126836720.99906      1816.212 6        38.781    23735746.052 7  98650917.64607      1412.642 7        42.406
R16  23788818.352 7 127075633.45607      4825.041 7        43.125    23788828.780 6  98836626.59906      3752.795 6        38.656
R17  24299103.683 5                      7781.498 5        31.281    24299115.615 6 101134026.59606      6052.276 6        39.750
R22  23168808.052 7 123676687.44307      -257.403 7        42.438    23168821.394 6  96193016.51006      -200.220 6        39.844
R23  19370260.349 8 103617831.32908      2391.791 8        48.344
R24  20113437.674 8 107555591.09908      6220.220 8        51.281    20113444.836 7  83654378.64507      4837.867 7        46.500
S23  38774232.368 7 203759964.18707      3563.193 7        43.031
S36  38183921.203 7 200657851.09907      3566.940 7        44.438
> 2023 06 09 15 28 59.0000000  0 37
C05  40339671.593 5 210059252.21505      3513.238 5        34.219    40339680.588 5 162431176.27505      2717.203 5        35.094
C06  39166644.568 6 203951031.37806      4008.425 6        37.563    39166648.375 5 157707859.62205      3099.990 5        34.156
C09  39028722.818 6                      4588.197 6        40.031    39028730.999 6 157152506.34306      3547.823 6        38.813
C16  39315200.997 4                      3835.948 4        27.219    39315211.851 4                      2966.117 4        29.594
C20  23705031.104 8 123438319.79208      6430.648 8        49.031
C27  24314643.365 7 126612718.95307       435.995 7        47.094
C29  23349697.770 8 121588007.03108      5880.218 8        48.844
C30  21673065.121 8 112857333.49408      2705.369 8        51.656
C32  21700872.232 8 113002136.79208      3613.250 8        52.000
E02  27296305.918 5 143443115.56905      2398.369 5        33.813    27296316.688 5 109910961.74305      1837.426 5        35.125
E04  24290415.749 7 127647002.41107      5406.437 7        47.906    24290423.071 7  97807467.82807      4142.580 7        46.469
E10  23586136.931 8 123945982.74508      2772.683 8        49.156    23586143.752 7  94971627.22107      2124.517 7        46.719
E11  22621627.268 7 118877452.10907      4194.590 7        45.250    22621630.583 7  91087934.16307      3213.986 7        43.313
E12  24908360.133 7 130894310.33107      1693.208 7        43.188    24908365.886 6 100295663.10206      1297.269 6        41.750
E19  25734648.950 6 135236490.98906      2225.439 6        38.094    25734654.962 5 103622788.35205      1705.128 5        34.969
E30                                                                  28503108.447 4                      3586.268 4        26.906
E36  26185044.295 7 137603334.66207      6013.176 7        44.281    26185054.179 6 105436370.28606      4607.530 6        41.563
G01  20058386.931 8 105407532.89908      2589.347 8        50.500    20058392.363 8  82135760.63108      2017.674 8        51.563    20058392.609 7  82135764.64107      2017.566 7        45.969
G02  21221834.394 8 111521489.67808      2221.260 8        48.438    21221835.990 6  86899871.32806      1730.850 6        37.938
G03  20391651.597 8 107158858.14608      4773.604 8        49.781    20391657.812 8  83500430.40008      3719.683 8        52.406    20391657.986 7  83500434.40907      3719.701 7        46.781
G04  23688706.652 5 124484994.95205      7297.735 5        34.906    23688715.863 1  97001328.04901      5686.545 1        10.219    23688714.320 5                      5686.296 5        33.250
G14                                                                                                                                  24429556.452 4                       720.712 4        27.563
G17  22002474.406 7 115623779.62007      5435.649 7        47.188    22002477.307 5  90096469.73905      4235.567 5        34.406    22002477.272 6  90096467.74706      4235.511 6        41.344
G19  23318750.726 6 122540892.18406      6888.949 6        40.250    23318754.335 4  95486406.17204      5368.019 4        24.969
G21  21819259.631 7 114660981.97507      1627.766 7        47.969    21819262.537 5  89346231.58605      1268.390 5        34.250
G32  24029297.069 5 126274803.39805       779.822 5        32.500    24029304.053 4  98395981.67204       607.652 4        26.688    24029305.748 5  98396177.62105       607.401 5        35.281
R01  20524256.129 7 109713903.79707      6821.686 7        46.156    20524264.654 6  85333087.94406      5305.646 6        41.156
R07  22125487.294 6 118439520.30406      -192.518 6        37.938    22125490.477 6  92119606.53806      -149.853 6        36.594
R08  19324881.570 8 103483864.37608      2749.712 8        50.625    19324887.204 7  80487472.07507      2138.628 7        47.719
R15  23735394.103 6 126834905.24706      1815.333 6        38.250    23735406.151 7  98649505.41007      1411.929 7        42.438
R16  23787914.986 7 127070809.03807      4823.901 7        42.063    23787925.803 6  98832874.23906      3751.918 6        38.625
R17  24297649.681 5                      7786.834 5        34.063    24297661.841 6 101127974.37206      6052.315 6        39.219
R22  23168856.283 7 123676945.01507      -257.584 7        42.750    23168870.152 6  96193216.82206      -200.199 6        40.063
R23  19369813.276 8 103615439.97908      2391.001 8        48.313
R24  20112274.467 8 107549371.30508      6219.571 8        51.094    20112281.486 7  83649541.02607      4837.483 7        46.500
S23  38773555.409 7 203756401.05307      3563.246 7        43.875
S36  38183241.642 7 200654284.28507      3566.828 7        44.313
> 2023 06 09 15 29  0.0000000  0 38
C05  40338997.729 5 210055739.63105      3512.756 5        34.625    40339006.178 5 162428460.16005      2716.320 5        35.938
C06  39165874.331 5 203947023.75005      4007.814 5        34.906    39165878.161 5 157704760.76505      3098.913 5        31.156
C09  39027841.591 6                      4587.616 6        39.906    39027850.013 6 157148959.06706      3547.249 6        39.406
C16  39314466.546 4                      3835.291 4        25.969    39314475.863 4                      2965.101 4        26.500
C20  23703796.382 8 123431889.99908      6429.788 8        48.531
C27  24314559.616 7 126612283.75407       435.385 7        46.625
C29  23348568.761 8 121582127.68108      5879.298 8        48.688
C30  21672545.813 8 112854629.04808      2704.333 8        51.750
C32  21700178.460 8 112998524.49308      3612.249 8        52.000
E02  27295850.193 5 143440718.43905      2396.997 5        34.719    27295860.475 5 109909124.96905      1836.614 5        35.438
E04  24289387.120 7 127641596.94707      5405.344 7        47.625    24289394.334 7  97803325.98407      4141.858 7        46.219
E10  23585609.530 8 123943210.94208      2771.732 8        49.188    23585616.342 7  94969503.36707      2123.822 7        46.938
E11  22620829.070 7 118873258.31607      4193.780 7        45.281    22620832.582 7  91084720.72707      3213.519 7        43.344
E12  24908038.087 7 130892617.99407      1692.434 7        43.125    24908043.812 6 100294366.35606      1296.793 6        41.406
E19  25734225.818 6 135234266.53206      2224.359 6        38.438    25734231.839 5 103621083.87505      1704.479 5        35.656
E30  28502218.798 5 149780273.05505      4680.351 5        33.563    28502219.748 4                      3585.579 4        25.594
E36  26183900.119 7 137597322.23207      6012.434 7        44.000    26183910.043 7 105431763.35707      4606.996 7        42.313
G01  20057894.314 8 105404944.50708      2588.361 8        50.375    20057899.787 8  82133743.70408      2016.905 8        51.656    20057899.796 7  82133747.70607      2016.855 7        45.938
G02  21221411.808 8 111519269.35808      2220.325 8        48.625    21221413.480 6  86898141.20906      1730.125 6        38.188
G03  20390743.334 8 107154085.47308      4772.591 8        49.781    20390749.603 8  83496711.43708      3718.902 8        52.375    20390749.773 7  83496715.44207      3718.944 7        46.969
G04  23687317.842 5 124477697.93105      7297.007 5        35.281    23687327.321 1  96995642.05901      5685.976 1        10.500    23687326.100 5                      5685.824 5        32.750
G14                                                                                                                                  24429381.142 4                       719.460 4        25.406
G17  22001440.227 7 115618345.04007      5434.562 7        46.875    22001443.124 5  90092235.00305      4234.721 5        34.438    22001443.066 6  90092233.01606      4234.615 6        41.656
G19  23317439.919 6 122534004.23706      6887.991 6        40.750    23317443.662 4  95481038.93404      5367.271 4        25.125
G21  21818950.020 7 114659355.07207      1626.881 7        47.750    21818952.936 5  89344963.86805      1267.704 5        34.469
G28                                                                                                                                  24344922.790 5                      4207.039 5        32.719
G32  24029147.605 5 126274024.38905       779.518 5        32.688    24029155.926 4  98395374.62704       607.456 4        26.781    24029157.344 6  98395570.56206       607.086 6        36.344
R01  20522980.022 7 109707083.15207      6820.583 7        46.344    20522988.708 6  85327783.00706      5304.829 6        41.031
R07  22125523.349 5 118439713.84305      -194.008 5        32.000    22125526.299 5  92119757.02205      -150.353 5        34.969
R08  19324368.308 8 103481115.79908      2748.298 8        50.813    19324373.907 7  80485334.28507      2137.638 7        47.469
R15  23735053.813 6 126833090.90006      1814.173 6        39.000    23735067.090 7  98648094.26407      1411.003 7        42.781
R16  23787011.633 6 127065985.96106      4822.638 6        40.063    23787023.080 6  98829122.98406      3751.376 6        37.469
R17  24296198.045 5                      7781.080 5        34.000    24296207.638 6 101121922.71106      6051.829 6        40.375
R22  23168904.657 7 123677203.59207      -258.647 7        42.188    23168918.406 6  96193417.93706      -201.079 6        38.750
R23  19369366.539 8 103613050.05408      2389.772 8        48.563
R24  20111111.617 8 107543152.70508      6218.510 8        51.219    20111118.591 7  83644704.33707      4836.729 7        46.469
S23  38772879.679 7 203752838.64007      3562.587 7        43.313
S36  38182564.441 7 200650718.24607      3566.163 7        44.813
> 2023 06 09 15 29  1.0000000  0 38
C05  40338323.699 5 210052227.40905      3512.133 5        33.719    40338331.839 6 162425744.34306      2714.880 6        36.031
C06  39165104.559 5 203943016.78305      4006.181 5        33.188    39165108.648 5 157701662.31305      3097.849 5        31.688
C09  39026960.288 6                      4585.813 6        38.094    39026969.000 6 157145412.25506      3545.477 6        37.438
C16  39313730.875 4                      3835.005 4        25.438    39313740.621 4                      2964.859 4        25.156
C20  23702561.557 8 123425460.84008      6428.344 8        48.250
C27  24314476.010 7 126611849.13607       433.690 7        46.563
C29  23347439.663 8 121576249.03208      5877.822 8        48.719
C30  21672026.725 8 112851925.48708      2702.749 8        51.781
C32  21699484.911 8 112994913.08208      3610.513 8        51.875
E02  27295393.698 5 143438322.14305      2395.177 5        33.375    27295404.374 5 109907288.82005      1835.409 5        35.000
E04  24288358.548 7 127636192.24207      5403.875 7        47.500    24288365.664 7  97799184.72307      4140.741 7        46.063
E10  23585082.254 8 123940439.78808      2770.354 8        49.500    23585089.133 7  94967380.03207      2122.767 7        47.063
E11  22620031.154 7 118869065.16707      4192.340 7        45.031    22620034.670 7  91081507.80207      3212.265 7        43.250
E12  24907716.322 7 130890926.26007      1690.789 7        43.063    24907721.802 6 100293070.11506      1295.435 6        41.625
E19  25733802.606 6 135232042.88706      2222.787 6        37.906    25733808.756 5 103619380.05805      1703.238 5        34.500
E30  28501327.233 5 149775593.61805      4678.785 5        33.188    28501329.698 4                      3584.925 4        24.156
E36  26182755.992 7 137591310.25807      6011.395 7        44.094    26182766.099 6 105427156.78906      4606.179 6        41.781
G01  20057402.034 8 105402356.99208      2586.519 8        50.594    20057407.377 8  82131727.45708      2015.468 8        51.719    20057407.238 7  82131731.47207      2015.490 7        45.656
G02  21220989.508 8 111517049.78308      2218.950 8        48.844    21220991.104 6  86896411.66906      1729.051 6        38.344
G03  20389835.393 8 107149313.69308      4770.826 8        49.906    20389841.573 8  83492993.16708      3717.528 8        52.438    20389841.765 7  83492997.16507      3717.576 7        46.750
G04  23685929.135 5 124470401.41805      7295.566 5        35.281    23685938.864 1  96989956.47201      5684.882 1        11.094    23685936.937 5                      5685.453 5        30.656
G14                                                                                                                                  24429204.853 4                       718.155 4        24.438
G17  22000406.137 7 115612911.34207      5432.797 7        47.188    22000409.128 5  90088000.95405      4233.346 5        34.375    22000408.891 6  90087998.96606      4233.190 6        40.844
G19  23316129.345 6 122527117.03706      6886.274 6        41.281    23316133.136 4  95475672.29004      5365.931 4        25.281
G21  21818640.517 7 114657728.80807      1625.612 7        47.844    21818643.477 5  89343696.64905      1266.715 5        34.656
G28                                                                                                                                  24343894.303 5                      4206.357 5        32.219
G32  24028998.955 5 126273245.92905       777.874 5        31.969    24029007.857 4  98394768.00504       606.157 4        26.688    24029009.262 5  98394963.98605       606.264 5        35.063
R01  20521704.259 7 109700263.47507      6818.734 7        46.469    20521713.289 6  85322478.80206      5303.522 6        40.813
R07  22125561.747 4 118439907.78604      -194.211 4        29.469    22125562.609 5  92119907.86405      -151.063 5        33.313
R08  19323855.390 8 103478368.41208      2746.324 8        50.406    19323860.739 7  80483197.43707      2136.128 7        47.125
R15  23734714.296 6 126831277.63306      1812.394 6        38.625    23734728.043 7  98646683.94907      1409.473 7        42.531
R16  23786108.723 6 127061164.14106      4820.341 6        40.406    23786121.275 6  98825372.80806      3748.908 6        37.656
R17  24294745.564 5 130006069.41415      7779.774 5        33.125    24294753.511 6 101115871.27606      6051.091 6        39.969
R22  23168953.313 7 123677462.73907      -259.860 7        42.625    23168966.869 6  96193619.51206      -202.493 6        39.563
R23  19368920.114 8 103610661.22508      2387.728 8        48.656
R24  20109948.776 8 107536934.92308      6216.888 8        50.969    20109955.835 7  83639868.30007      4835.413 7        46.219
S23  38772201.388 7 203749276.62707      3561.273 7        43.250
S36  38181886.315 7 200647152.65907      3564.994 7        44.344
> 2023 06 09 15 29  2.0000000  0 38
C05  40337649.168 5 210048715.68805      3511.406 5        35.063    40337657.353 5 162423028.73305      2714.944 5        35.750
C06  39164335.261 5 203939010.20705      4006.503 5        31.688    39164340.066 3                      3098.579 3        21.406
C09  39026079.307 5                      4586.002 5        35.531    39026088.587 5 157141866.09905      3545.600 5        34.188
C16  39312994.546 4                      3833.001 4        26.344
C20  23701326.902 8 123419032.36808      6428.148 8        48.219
C27  24314392.435 7 126611415.14207       433.952 7        46.313
C29  23346310.744 8 121570371.11808      5877.223 8        48.094
C30  21671507.762 8 112849222.83208      2702.182 8        51.688
C32  21698791.505 8 112991302.54508      3610.067 8        52.250
E02  27294937.991 5 143435926.63605      2395.016 5        33.969    27294948.702 5 109905453.32205      1835.088 5        35.125
E04  24287330.146 7 127630788.33707      5403.445 7        47.531    24287337.312 7  97795044.08507      4140.233 7        45.750
E10  23584555.023 8 123937669.35908      2769.944 8        49.000    23584562.117 7  94965257.22207      2122.388 7        47.188
E11  22619233.273 7 118864872.72907      4191.821 7        44.969    22619236.906 7  91078295.40207      3212.102 7        43.281
E12  24907394.670 7 130889235.11407      1690.652 7        43.969    24907399.984 6 100291774.27306      1295.466 6        41.563
E19  25733379.595 5 135229820.08905      2221.994 5        34.156    25733385.987 5 103617676.94005      1702.719 5        30.781
E30  28500435.470 5 149770915.01805      4678.054 5        31.938    28500440.266 3                      3584.858 3        23.875
E36  26181611.820 7 137585298.75807      6011.224 7        43.625    26181622.093 6 105422550.60606      4605.432 6        41.969
G01  20056909.864 8 105399770.36008      2585.913 8        50.500    20056915.136 8  82129711.90208      2014.997 8        51.688    20056914.725 7  82129715.92407      2014.976 7        45.281
G02  21220567.373 8 111514831.00208      2218.368 8        48.844    21220568.884 6  86894682.74706      1728.603 6        38.531
G03  20388927.618 8 107144542.81508      4770.113 8        50.094    20388933.704 8  83489275.60008      3716.970 8        52.406    20388933.918 7  83489279.58707      3717.116 7        46.719
G04  23684540.320 5 124463105.49805      7295.436 5        34.719    23684550.435 1  96984271.31901      5684.765 1        10.500    23684547.868 5                      5684.978 5        30.000
G14                                                                                                                                  24429028.537 3                       718.202 3        22.938
G17  21999372.343 7 115607478.55907      5431.889 7        47.063    21999375.294 5  90083767.61705      4232.636 5        34.344    21999375.048 6  90083765.61706      4232.667 6        40.938
G19  23314819.365 7 122520230.59807      6886.068 7        42.000    23314822.732 4  95470306.22504      5365.765 4        25.594
G21  21818331.090 8 114656103.23208      1625.168 8        48.094    21818334.161 5  89342429.96505      1266.366 5        34.875
G28                                                                                                                                  24342866.899 5                      4205.711 5        31.313
G32  24028852.259 5 126272468.36805       777.561 5        34.000    24028859.936 4  98394162.11204       605.885 4        26.438    24028861.935 5  98394358.18705       605.301 5        34.531
R01  20520428.487 7 109693444.78807      6818.024 7        46.188    20520438.014 6  85317175.37406      5303.152 6        40.875
R07  22125597.189 5 118440102.87405      -195.142 5        31.469    22125599.710 6  92120059.48906      -152.000 6        39.219
R08  19323342.558 8 103475622.24108      2745.294 8        50.469    19323347.638 7  80481061.52507      2135.348 7        47.063
R15  23734374.564 6 126829465.52906      1811.187 6        38.594    23734389.013 7  98645274.52207      1408.934 7        42.375
R16  23785206.073 6 127056343.49306      4819.938 6        40.719    23785220.632 5  98821623.38705      3748.307 5        33.563
R17  24293293.454 5 129998289.23105      7779.867 5        35.563    24293299.850 6 101109820.08206      6050.804 6        39.688
R22  23169002.541 7 123677722.59607      -260.546 7        42.250    23169015.529 6  96193821.54406      -201.997 6        39.594
R23  19368473.842 8 103608273.48808      2387.006 8        48.750
R24  20108786.159 8 107530718.05108      6216.222 8        50.938    20108793.048 7  83635032.95607      4834.752 7        46.344
S23  38771523.266 7 203745714.98807      3561.639 7        44.156
S36  38181209.491 7 200643587.48507      3564.848 7        45.313
> 2023 06 09 15 29  3.0000000  0 38
C05                                                                  40336983.242 5 162420313.72405      2714.314 5        31.188
C06  39163566.692 4 203935004.35204      4005.818 4        28.094    39163569.565 4                      3097.205 4        28.563
C09  39025198.607 5 203214451.76605      4585.015 5        34.875    39025208.867 5 157138319.92405      3545.559 5        31.906
C16  39312259.040 4                      3832.539 4        24.688
C20  23700092.501 8 123412604.61208      6426.646 8        49.406
C27  24314309.058 7 126610981.81807       432.334 7        45.000
C29  23345182.294 7 121564493.96207      5876.375 7        47.844
C30  21670988.987 8 112846521.15208      2700.541 8        52.656
C32  21698098.489 8 112987692.97708      3608.514 8        50.125
E02  27294482.574 5 143433532.02205      2393.394 5        34.531    27294493.048 5 109903618.49805      1833.810 5        35.031
E04  24286302.049 7 127625385.31407      5402.062 7        46.813    24286309.241 7  97790904.07607      4139.204 7        45.563
E10  23584027.850 7 123934899.73207      2768.792 7        45.719    23584035.248 7  94963135.06307      2121.445 7        43.656
E11  22618435.715 7 118860680.98907      4190.812 7        46.250    22618439.316 7  91075083.54607      3211.186 7        44.125
E12  24907073.428 5 130887544.94905      1689.576 5        35.469    24907078.353 5 100290479.22805      1294.738 5        33.813
E19  25732956.611 5 135227598.07505      2220.888 5        35.656    25732962.922 5 103615974.19605      1701.837 5        30.375
E30  28499543.654 5 149766237.28705      4676.432 5        32.750    28499550.914 3                      3583.115 3        23.906
E36  26180468.082 7 137579287.80107      6010.309 7        44.500    26180478.193 6 105417944.78506      4605.145 6        41.469
G01  20056417.798 8 105397184.69708      2584.656 8        48.281    20056423.070 8  82127697.09708      2014.030 8        51.000    20056422.462 7  82127701.12207      2013.923 7        42.094
G02  21220145.274 7 111512613.19907      2217.008 7        43.063    21220146.852 6  86892954.58806      1727.539 6        37.594
G03  20388020.129 8 107139772.86108      4768.891 8        50.563    20388026.005 8  83485558.75208      3716.021 8        52.500    20388026.228 7  83485562.73607      3716.061 7        47.313
G04  23683152.418 5 124455810.17505      7294.551 5        34.938    23683162.161 1  96978586.62901      5684.032 1        10.281    23683159.089 5                      5684.063 5        31.313
G14                                                                                                                                  24428850.902 3                       716.436 3        21.188
G17  21998338.759 7 115602046.69307      5430.772 7        46.438    21998341.629 5  90079534.99605      4231.774 5        34.375    21998341.419 6  90079532.99706      4231.807 6        40.906
G19  23313509.631 7 122513345.00507      6884.598 7        42.563    23313512.457 4  95464940.82904      5364.625 4        25.563
G21  21818022.271 6 114654478.58906      1624.134 6        40.750    21818025.038 5  89341164.01305      1265.566 5        34.031
G28                                                                                                                                  24341840.581 4                      4205.301 4        28.469
G32  24028705.536 6 126271691.77106       775.681 6        36.031    24028712.171 4  98393556.98604       604.462 4        26.031    24028713.687 5  98393752.97305       604.156 5        31.094
R01  20519153.055 7 109686627.13307      6816.502 7        46.594    20519162.823 6  85311872.75606      5301.834 6        40.969
R07  22125634.165 3                      -197.678 3        21.469    22125636.748 5  92120211.56005      -152.835 5        35.906
R08  19322830.177 8 103472877.28508      2743.765 8        49.750    19322834.993 7  80478926.52407      2134.008 7        44.469
R15  23734036.147 6 126827654.62806      1809.635 6        39.656    23734050.328 7  98643866.00907      1407.482 7        42.813
R16  23784304.222 6 127051524.17206      4818.002 6        40.344    23784320.915 5  98817874.99605      3747.592 5        31.969
R17  24291841.232 5 129990509.49505      7779.421 5        34.188    24291845.839 6 101103769.16606      6050.220 6        39.063
R22  23169051.716 6                      -260.405 6        36.469    23169064.440 6                      -203.359 6        36.500
R23  19368027.749 7 103605886.97907      2385.442 7        44.406
R24  20107623.577 8 107524502.16308      6214.859 8        50.656    20107630.824 7  83630198.40107      4833.729 7        46.281
S23  38770846.222 6 203742153.79006      3560.567 6        41.188
S36  38180530.421 7 200640022.89607      3563.859 7        45.875
> 2023 06 09 15 29  4.0000000  0 38
C05                                                                  40336309.794 5 162417599.10205      2714.348 5        32.469
C06  39162797.953 4 203930999.61504      4004.448 4        27.719    39162801.734 4                      3096.690 4        29.406
C09  39024318.587 5 203209866.97505      4584.426 5        32.844
C16  39311523.615 4                      3830.972 4        25.313
C20  23698858.239 8 123406177.83808      6426.474 8        49.656
C27  24314225.885 7 126610549.43707       432.233 7        46.563
C29  23344053.912 8 121558617.81408      5875.855 8        48.531
C30  21670470.243 8 112843820.66708      2700.208 8        52.781
C32  21697405.575 8 112984084.57408      3608.027 8        50.125
E02  27294027.135 5 143431138.60005      2392.854 5        32.531    27294037.564 5 109901784.55105      1833.681 5        34.875
E04  24285274.175 7 127619983.37607      5401.699 7        45.906    24285281.470 7  97786764.94707      4138.861 7        46.000
E10  23583500.927 7 123932131.02807      2768.363 7        44.625    23583508.736 7  94961013.57407      2121.321 7        43.938
E11  22617638.330 7 118856490.24707      4190.550 7        46.781    22617641.892 7  91071872.45107      3211.013 7        44.594
E12  24906751.986 5 130885855.34405      1689.358 5        35.375    24906757.067 5 100289184.56505      1294.464 5        34.125
E19  25732533.698 5 135225377.21105      2220.343 5        33.688    25732540.318 4 103614272.47204      1701.085 4        26.125
E30  28498653.453 4 149761560.77104      4676.200 4        28.500    28498660.748 4                      3582.895 4        24.469
E36  26179324.393 7 137573277.60807      6009.987 7        44.625    26179334.411 6 105413339.55106      4605.076 6        41.156
G01  20055926.094 7 105394600.21507      2584.184 7        47.531    20055931.227 8  82125683.21408      2013.650 8        50.000    20055930.284 6  82125687.22406      2013.676 6        41.594
G02  21219723.153 6 111510396.27206      2216.693 6        41.719    21219725.013 6  86891227.11206      1727.296 6        36.094
G03  20387112.797 8 107135004.10008      4768.389 8        50.531    20387118.529 8  83481842.83008      3715.632 8        52.813    20387118.721 7  83481846.82407      3715.610 7        47.250
G04  23681763.926 6 124448515.65406      7294.161 6        36.250    23681774.111 1  96972902.63001      5683.698 1        10.719    23681771.835 5                      5683.727 5        31.563
G14                                                                                                                                  24428673.938 3                       716.988 3        22.625
G17  21997305.411 7 115596616.04207      5430.240 7        47.219    21997308.192 5  90075303.31705      4231.360 5        34.188    21997308.027 6  90075301.32306      4231.240 6        39.750
G19  23312200.103 7 122506460.39407      6884.424 7        42.531    23312202.388 4  95459576.18704      5364.489 4        25.281
G21  21817713.541 6 114652854.64006      1623.652 6        41.719    21817716.058 5  89339898.60505      1265.156 5        32.281
G28                                                                                                                                  24340815.229 4                      4203.945 4        28.531
G32  24028557.467 5 126270916.11805       775.709 5        34.188    24028564.563 4  98392952.56304       604.460 4        25.531    24028565.381 5  98393148.59305       604.129 5        30.969
R01  20517877.721 7 109679810.73707      6815.966 7        46.281    20517887.378 6  85306571.14006      5301.219 6        41.125
R07  22125668.565 4                      -197.225 4        24.188    22125674.064 5  92120364.52405      -153.059 5        35.719
R08  19322318.002 8 103470133.81608      2742.992 8        48.813    19322322.264 7  80476792.73807      2133.456 7        43.500
R15  23733697.292 6 126825845.02506      1809.101 6        39.688    23733711.880 6  98642458.58406      1407.098 6        41.969
R16  23783402.260 6 127046706.35106      4817.262 6        38.281    23783420.415 6  98814127.79006      3746.980 6        36.094
R17  24290387.418 5 129982730.46605      7778.961 5        35.406    24290392.325 6 101097718.76606      6050.287 6        38.188
R22  23169100.327 5                      -261.289 5        34.438    23169113.784 6                      -203.516 6        37.969
R23  19367582.066 7 103603501.79707      2384.704 7        43.469
R24  20106461.228 8 107518287.45908      6214.289 8        49.406    20106468.609 7  83625364.76107      4833.332 7        46.500
S23  38770168.114 7 203738593.37807      3560.356 7        43.094
S36  38179850.699 7 200636459.09507      3563.717 7        45.656
> 2023 06 09 15 29  5.0000000  0 38
C05                                                                  40335636.265 5 162414885.17205      2713.081 5        31.406
C06  39162029.567 4 203926995.72004      4002.836 4        25.375    39162035.530 4                      3095.720 4        29.188
C09  39023437.655 4 203205283.26004      4582.862 4        28.563    39023453.433 4                      3545.313 4        24.719
C16  39310787.389 3                      3831.234 3        23.063    39310801.682 4                      2963.093 4        24.563
C20  23697624.385 8 123399751.98208      6425.323 8        50.000
C27  24314143.210 7 126610118.14007       430.152 7        46.156
C29  23342925.547 8 121552742.54108      5875.328 8        49.031
C30  21669951.821 8 112841121.41508      2698.492 8        52.344
C32  21696712.966 8 112980477.41808      3606.347 8        49.219
E02  27293571.852 5 143428746.18005      2392.570 5        33.625    27293582.438 5 109899951.33205      1833.322 5        33.594
E04  24284246.386 7 127614582.63307      5399.639 7        44.781    24284253.891 7  97782626.73907      4137.300 7        45.250
E10  23582974.259 7 123929363.42007      2766.820 7        42.969    23582982.382 7  94958892.92607      2119.966 7        43.500
E11  22616840.991 7 118852300.44707      4189.360 7        46.156    22616844.664 7  91068662.09207      3210.063 7        44.188
E12  24906430.780 6 130884166.95206      1687.295 6        37.031    24906435.790 5 100287890.85105      1292.804 5        35.969
E19  25732111.112 5 135223157.63105      2218.699 5        30.969
E30  28497762.723 5 149756885.34605      4675.044 5        31.281    28497771.208 3                      3581.273 3        20.719
E36  26178180.851 7 137567267.98307      6009.995 7        44.719    26178190.659 6 105408734.77406      4605.138 6        40.969
G01  20055434.703 7 105392016.98807      2582.558 7        46.406    20055439.626 8  82123670.30908      2012.386 8        48.844    20055438.969 6  82123674.32706      2012.386 6        40.813
G02  21219301.573 6 111508180.58206      2214.621 6        41.531    21219303.420 5  86889500.60705      1725.662 5        34.531
G03  20386205.545 8 107130236.48908      4767.201 8        51.000    20386211.268 8  83478127.80608      3714.706 8        53.063    20386211.545 7  83478131.80407      3714.607 7        47.594
G04  23680376.113 5 124441222.06905      7292.932 5        35.906    23680386.241 1  96967219.36001      5682.825 1        10.281    23680384.045 5                      5683.047 5        31.750
G14                                                                                                                                  24428496.575 3                       715.697 3        22.469
G17  21996272.145 7 115591186.45207      5429.496 7        47.219    21996274.961 5  90071072.47305      4230.758 5        34.031    21996274.729 6  90071070.46906      4231.010 6        39.188
G19  23310890.133 6 122499576.65406      6884.010 6        41.844    23310892.404 4  95454212.23604      5364.155 4        25.313
G21  21817404.699 7 114651231.88907      1621.831 7        43.250    21817407.328 5  89338634.12305      1263.776 5        30.938
G28  24339766.245 3                      5392.584 3        22.625                                                                    24339789.993 4                      4203.018 4        27.000
G32  24028409.273 5 126270141.57805       773.801 5        33.625    24028417.147 4  98392349.03604       602.950 4        24.500    24028417.474 4  98392545.13804       602.793 4        28.313
R01  20516602.804 7 109672995.63707      6814.494 7        45.563    20516612.250 6  85301270.51406      5300.032 6        40.875
R07  22125707.785 4                      -196.517 4        24.438    22125711.152 6  92120518.22406      -154.157 6        36.625
R08  19321805.737 7 103467391.91807      2741.081 7        46.406    19321810.174 7  80474660.15807      2131.942 7        42.344
R15  23733358.603 6 126824036.70606      1809.037 6        36.531    23733373.915 6  98641052.21306      1406.278 6        41.438
R16  23782501.108 6 127041890.09106      4815.305 6        40.938    23782520.125 5  98810381.79005      3745.440 5        35.406
R17  24288934.869 5 129974951.99105      7778.597 5        31.406    24288938.533 6 101091668.83206      6050.439 6        37.125
R22  23169149.125 6 123678507.07906      -264.266 6        38.625    23169163.039 6  96194431.73206      -205.293 6        37.594
R23  19367136.451 7 103601118.14807      2382.656 7        43.375
R24  20105299.228 8 107512073.86608      6213.613 8        49.281    20105306.546 7  83620531.94107      4832.580 7        47.906
S23  38769491.169 7 203735033.80407      3558.463 7        43.281
S36  38179174.209 7 200632896.06707      3562.282 7        45.406
> 2023 06 09 15 29  6.0000000  0 36
C05                                                                  40334963.124 5 162412172.32605      2713.209 5        32.063
C06  39161260.596 3                      4002.056 3        23.250    39161267.426 5                      3094.647 5        30.813
C09  39022557.496 5 203200700.74305      4581.605 5        31.250    39022573.494 4                      3543.777 4        27.875
C16  39310051.578 4                      3830.068 4        25.344    39310067.581 4                      2961.324 4        26.438
C20  23696390.284 8 123393326.07508      6425.395 8        49.000
C27  24314060.852 7 126609688.12307       429.443 7        45.906
C29  23341797.097 7 121546866.70207      5875.772 7        47.625
C30  21669433.609 8 112838422.77508      2698.127 8        53.125
C32  21696020.454 8 112976871.13608      3605.763 8        49.906
E02  27293116.166 5 143426352.75705      2393.070 5        33.125    27293126.714 5 109898117.53605      1833.564 5        35.344
E04  24283219.061 7 127609183.04007      5399.365 7        46.344    24283226.565 7  97778489.36807      4136.880 7        46.375
E10  23582447.812 7 123926596.62107      2766.458 7        45.219    23582455.897 7  94956772.92207      2119.717 7        43.875
E11  22616043.861 7 118848110.76807      4189.225 7        46.469    22616047.458 7  91065451.80807      3209.936 7        44.656
E12  24906109.673 5 130882479.91905      1686.537 5        34.875    24906115.031 5 100286598.27905      1292.354 5        32.844
E19  25731688.890 5 135220939.29105      2217.875 5        35.469    25731695.209 4                      1699.278 4        29.250
E36  26177036.990 7 137561257.32607      6010.723 7        44.031    26177046.888 7 105404129.25407      4605.538 7        42.406
G01  20054943.265 7 105389434.70107      2581.825 7        47.563    20054948.206 8  82121658.14108      2011.810 8        48.281    20054947.759 7  82121662.12807      2011.895 7        42.406
G02  21218879.774 7 111505966.16107      2214.589 7        42.063    21218882.053 5  86887775.08605      1725.667 5        33.125
G03  20385298.431 8 107125469.06508      4767.061 8        50.656    20385304.042 8  83474412.92908      3714.592 8        53.281    20385304.423 7  83474416.93707      3714.478 7        47.781
G04  23678987.977 6 124433929.18406      7292.234 6        36.031    23678998.436 1  96961536.57801      5682.304 1        10.438    23678995.587 5                      5682.497 5        31.656
G17  21995238.809 7 115585756.43907      5429.566 7        46.719    21995241.652 5  90066841.29505      4230.841 5        33.875    21995241.538 6  90066839.32006      4230.677 6        40.844
G19  23309580.301 6 122492692.29806      6884.092 6        41.906    23309582.361 4  95448847.80904      5364.228 4        25.250
G21  21817095.975 6 114649610.51906      1620.364 6        40.125    21817098.778 4  89337370.71004      1262.619 4        29.813
G28  24338744.416 4                      5393.538 4        25.031                                                                    24338762.106 3                      4203.130 3        21.500
G32  24028261.842 5 126269368.27505       773.775 5        30.313    24028269.994 3  98391746.50403       602.944 3        23.219    24028269.924 4  98391942.35304       603.569 4        29.375
R01  20515328.165 7 109666181.05507      6813.837 7        46.625    20515337.447 6  85295970.27406      5299.680 6        41.031
R07  22125741.824 6                      -198.226 6        36.063    22125748.970 6  92120672.73506      -155.168 6        36.563
R08  19321293.516 8 103464651.15308      2740.130 8        48.500    19321298.290 7  80472528.43407      2131.437 7        44.406
R15  23733020.131 6 126822228.04606      1809.121 6        40.531    23733033.626 6  98639645.34306      1406.290 6        38.969
R16  23781599.611 6 127037074.40806      4814.686 6        40.469    23781617.307 5  98806636.24605      3745.361 5        32.313
R17                                                                  24287484.007 5 101085617.86705      6051.627 5        35.594
R22  23169199.234 6 123678771.35506      -264.615 6        39.500    23169212.514 6  96194637.16806      -205.813 6        38.125
R23  19366690.920 7 103598735.85807      2381.576 7        42.781
R24  20104137.406 8 107505860.06508      6213.360 8        50.469    20104144.283 7  83615698.96207      4832.780 7        45.125
S23  38768812.564 6 203731475.38606      3557.724 6        41.969
S36  38178495.539 7 200629333.53507      3562.210 7        46.031
> 2023 06 09 15 29  7.0000000  0 37
C05                                                                  40334289.844 5 162409459.81405      2711.876 5        31.469
C06  39160491.325 4                      4002.026 4        24.063    39160498.083 5                      3094.977 5        30.313
C09  39021677.703 5 203196118.62505      4581.159 5        30.344    39021691.064 4                      3543.303 4        29.438
C16  39309316.680 5                      3830.145 5        30.375    39309328.497 4                      2961.631 4        29.906
C20  23695156.269 7 123386900.57207      6425.497 7        47.250
C27  24313978.201 7 126609258.70007       428.959 7        46.250
C29  23340668.450 7 121540990.97007      5875.627 7        46.875
C30  21668915.556 8 112835724.79708      2697.643 8        52.781
C32  21695327.894 8 112973265.41808      3605.086 8        50.875
E02  27292661.571 6 143423959.83006      2392.275 6        36.813    27292671.351 5 109896283.85405      1832.962 5        34.594
E04  24282191.664 8 127603784.07708      5398.446 8        48.031    24282199.294 7  97774352.48207      4136.636 7        47.219
E10  23581921.598 7 123923830.29307      2765.896 7        46.844    23581929.218 7  94954653.23407      2119.485 7        44.656
E11  22615246.743 7 118843921.30207      4189.228 7        46.219    22615250.192 7  91062241.71707      3210.030 7        44.719
E12  24905787.815 5 130880793.26905      1685.788 5        34.156    24905794.381 5 100285305.87505      1291.869 5        35.250
E19  25731266.996 5 135218721.43005      2216.693 5        33.406    25731274.062 3                      1698.985 3        22.281
E36  26175893.163 7 137555246.51607      6011.181 7        42.875    26175903.193 7 105399523.56907      4605.581 7        42.500
G01  20054451.833 8 105386852.95508      2581.329 8        49.063    20054456.913 8  82119646.39408      2011.413 8        48.500    20054456.582 7  82119650.41807      2011.509 7        43.438
G02  21218458.998 7 111503752.11307      2213.669 7        44.406    21218460.752 5  86886049.84305      1724.943 5        32.313
G03  20384391.448 8 107120702.12208      4766.673 8        50.375    20384396.930 8  83470698.43408      3714.274 8        53.250    20384397.338 7  83470702.45107      3714.235 7        47.281
G04  23677599.544 5 124426636.59305      7292.492 5        34.969    23677610.615 1  96955854.04501      5682.445 1        10.500    23677609.500 5                      5682.306 5        32.000
G14                                                                                                                                  24428140.096 3                       718.112 3        20.313
G17  21994205.490 7 115580326.75307      5429.550 7        46.688    21994208.414 5  90062610.37505      4230.809 5        34.094    21994208.344 7  90062608.37107      4230.849 7        42.000
G19  23308270.321 7 122485808.01807      6883.995 7        42.719    23308272.378 4  95443483.43104      5364.155 4        25.188
G21  21816787.547 6 114647989.44606      1620.495 6        40.469    21816790.298 4  89336107.53904      1262.723 4        28.344
G28  24337719.404 4                      5392.108 4        27.125                                                                    24337736.865 4                      4201.744 4        25.594
G32  24028115.151 6 126268595.18206       772.697 6        38.719    24028122.856 3  98391144.02603       602.126 3        22.875    24028123.014 5  98391339.98705       601.328 5        31.313
R01  20514053.685 7 109659367.20407      6813.534 7        46.313    20514062.904 6  85290670.62506      5299.368 6        40.719
R07  22125778.427 6 118441027.67316      -199.132 6        38.188    22125786.448 5  92120827.16205      -154.245 5        32.531
R08  19320781.858 8 103461911.27708      2739.296 8        49.750    19320786.627 7  80470397.41607      2130.572 7        45.438
R15  23732681.581 6 126820419.86106      1807.231 6        40.031    23732694.090 6  98638238.93306      1406.310 6        40.156
R16  23780698.118 6 127032259.23306      4813.735 6        38.875
R17                                                                  24286028.500 5 101079566.71005      6050.624 5        32.844
R22  23169249.105 6 123679036.06806      -265.151 6        41.531    23169262.178 6  96194843.10206      -206.010 6        41.063
R23  19366245.814 7 103596354.32207      2381.013 7        45.281
R24  20102975.546 8 107499646.64708      6213.036 8        51.094    20102981.874 7  83610866.31307      4832.445 7        43.969
S23  38768134.463 7 203727917.32507      3557.983 7        43.250
S36  38177816.674 7 200625771.26707      3562.269 7        44.094
> 2023 06 09 15 29  8.0000000  0 36
C05                                                                  40333616.379 5 162406747.94005      2711.207 5        30.219
C06  39159721.584 4                      4002.079 4        26.250    39159729.975 4                      3094.189 4        25.969
C09  39020798.414 4 203191537.48804      4580.839 4        28.531    39020810.637 4                      3542.492 4        27.938
C16  39308581.976 5                      3829.351 5        30.281
C20  23693922.516 7 123380475.71407      6424.616 7        47.781
C27  24313895.804 7 126608830.25907       427.963 7        45.469
C29  23339539.894 7 121535115.84007      5875.038 7        46.656
C30  21668397.668 8 112833027.81308      2696.568 8        52.719
C32  21694635.615 8 112969660.82408      3604.286 8        50.656
E02  27292206.259 5 143421567.20905      2392.288 5        33.125    27292216.380 5 109894450.63205      1833.080 5        35.813
E04  24281164.557 8 127598386.22908      5397.403 8        48.625    24281172.250 7  97770216.47207      4135.688 7        46.875
E10  23581395.361 7 123921064.96407      2764.890 7        46.469    23581402.906 7  94952534.35407      2118.600 7        45.281
E11  22614449.701 7 118839732.63807      4188.400 7        46.094    22614452.967 7  91059032.23007      3209.228 7        44.625
E12  24905467.127 5 130879107.79305      1685.166 5        34.031    24905473.716 5 100284014.43505      1291.353 5        33.500
E19  25730844.386 5 135216504.86405      2215.844 5        30.406    25730853.036 5                      1698.052 5        30.531
E36  26174749.534 7 137549236.02107      6010.522 7        43.719    26174759.605 7 105394918.10407      4605.353 7        42.625
G01  20053960.659 8 105384272.44408      2579.969 8        48.938    20053965.855 8  82117635.61008      2010.364 8        48.688    20053965.761 7  82117639.60707      2010.615 7        44.156
G02  21218038.161 7 111501539.33707      2212.202 7        43.813    21218039.654 5  86884325.59605      1723.793 5        31.781
G03  20383484.580 8 107115936.12408      4765.575 8        50.688    20383489.991 8  83466984.67108      3713.435 8        53.219    20383490.308 7  83466988.66707      3713.425 7        47.500
G04  23676211.668 5 124419344.75305      7291.960 5        33.344    23676222.986 1  96950172.10701      5682.003 1        10.719    23676222.377 5                      5681.791 5        30.563
G17  21993172.353 7 115574897.83107      5428.468 7        47.313    21993175.335 5  90058380.05605      4229.961 5        34.500    21993175.487 6  90058378.05506      4230.096 6        41.563
G19  23306960.685 7 122478924.37007      6883.206 7        43.031    23306962.585 4  95438119.54704      5363.563 4        25.563
G21  21816479.149 6 114646369.62406      1619.432 6        39.500    21816482.100 4  89334845.33504      1261.904 4        27.094
G28  24336693.417 4                      5391.266 4        26.375                                                                    24336711.777 3                      4201.772 3        22.563
G32  24027967.875 6 126267823.29706       771.933 6        36.875    24027975.802 3  98390542.53503       601.531 3        23.781    24027975.051 5  98390738.56705       600.823 5        30.250
R01  20512779.294 7 109652554.42007      6812.159 7        47.000    20512788.248 6  85285371.77106      5298.692 6        40.469
R07  22125815.842 6 118441227.21106      -199.228 6        36.469    22125824.141 4  92120982.01904      -155.668 4        27.750
R08  19320270.285 8 103459172.86708      2737.578 8        49.469    19320275.253 7  80468267.53707      2129.241 7        45.406
R15  23732343.974 6 126818612.57406      1806.637 6        40.344    23732355.234 6  98636833.24806      1405.533 6        39.063
R16  23779797.024 7 127027445.65207      4812.709 7        42.406    23779810.970 6  98799147.80406      3742.145 6        37.750
R17  24284566.693 5 129951613.00805      7779.942 5        32.594    24284573.076 5 101073515.77105      6051.065 5        31.156
R22  23169299.305 6 123679302.05706      -266.256 6        41.906    23169311.810 6  96195049.92906      -207.365 6        40.094
R23  19365800.930 7 103593974.26807      2379.695 7        45.250
R24  20101813.866 8 107493434.07308      6212.169 8        50.625    20101820.196 7  83606034.30507      4831.778 7        44.094
S23  38767457.792 7 203724360.02407      3557.570 7        42.031
S36  38177137.873 7 200622209.63207      3561.229 7        44.750
> 2023 06 09 15 29  9.0000000  0 38
C05                                                                  40332943.055 4 162404036.76804      2710.563 4        29.969
C06  39158954.835 4                      4000.709 4        25.750    39158961.477 4                      3093.415 4        26.906
C09  39019919.195 5 203186956.91105      4579.605 5        31.531    39019929.660 3                      3541.270 3        21.875
C16  39307848.822 3                      3828.969 3        21.406    39307853.005 5                      2960.969 5        35.813
C20  23692688.894 7 123374051.82907      6423.374 7        47.500
C27  24313813.642 7 126608402.88307       426.902 7        46.438
C29  23338411.654 8 121529241.37408      5873.898 8        48.625
C30  21667879.921 8 112830331.98208      2695.133 8        52.094
C32  21693943.569 8 112966057.23408      3602.987 8        51.188
E02  27291751.374 5 143419175.62505      2390.971 5        32.813    27291761.567 5 109892618.08105      1831.814 5        35.875
E04  24280137.720 8 127592989.49808      5396.310 8        48.438    24280145.216 7  97766081.32107      4134.736 7        47.250
E10  23580869.248 7 123918300.41307      2763.885 7        46.469    23580876.547 7  94950416.08207      2117.804 7        45.156
E11  22613652.773 7 118835544.67807      4187.457 7        46.188    22613655.959 7  91055823.26907      3208.565 7        44.750
E12  24905146.861 5 130877423.10005      1684.266 5        35.063    24905153.029 5 100282723.53605      1290.698 5        35.125
E19  25730423.173 4 135214288.53304      2216.880 4        29.156    25730431.309 4                      1697.711 4        28.656
E30  28494190.648 4 149738185.70904      4670.949 4        25.594    28494202.710 5                      3580.816 5        31.500
E36  26173605.684 6 137543225.90206      6009.709 6        41.625    26173616.104 7 105390312.95807      4604.697 7        42.156
G01  20053469.425 8 105381692.87308      2578.968 8        49.125    20053474.992 8  82115625.55108      2009.591 8        48.969    20053475.063 7  82115629.52907      2009.689 7        44.531
G02  21217617.551 7 111499327.39307      2211.180 7        44.906    21217618.722 5  86882602.00105      1723.004 5        31.656
G03  20382577.767 8 107111171.11408      4764.375 8        50.219    20382583.231 8  83463271.67908      3712.500 8        53.250    20382583.642 7  83463275.70307      3712.523 7        47.094
G04  23674823.261 5 124412053.96905      7290.084 5        33.781    23674835.602 1  96944491.01901      5680.567 1        10.125    23674834.614 5                      5681.095 5        32.344
G14                                                                                                                                  24427793.265 4                       716.868 4        27.000
G17  21992139.265 7 115569469.77107      5427.184 7        47.125    21992142.422 5  90054150.40005      4228.974 5        34.688    21992142.641 6  90054148.41506      4229.154 6        41.594
G19  23305651.041 7 122472041.24807      6882.650 7        42.813    23305652.834 4  95432756.06804      5363.108 4        25.813
G21  21816171.104 6 114644750.52206      1618.833 6        40.875    21816174.068 4  89333583.70004      1261.425 4        26.188
G28  24335668.329 3                      5390.617 3        20.125
G32                                                                                                                                  24027830.752 4  98390137.37704       601.363 4        29.656
R01  20511504.997 7 109645742.92107      6810.819 7        46.438    20511514.318 7  85280073.96907      5297.118 7        42.031
R07  22125853.100 6                      -201.647 6        37.594    22125865.199 4                      -152.472 4        24.844
R08  19319759.089 8 103456435.71008      2736.284 8        49.688    19319764.066 7  80466138.66207      2128.149 7        45.906
R15  23732006.321 6 126816806.17206      1805.160 6        37.750    23732016.768 6  98635428.43306      1402.933 6        38.875
R16  23778896.452 7 127022633.06807      4812.148 7        44.219    23778907.855 6  98795404.08206      3742.976 6        40.000
R17  24283112.217 5 129943833.33005      7778.710 5        34.688    24283118.940 5 101067464.68905      6051.057 5        32.375
R22  23169349.709 6 123679568.93706      -267.245 6        41.500    23169361.843 6  96195257.53206      -208.181 6        40.000
R23  19365356.325 7 103591595.42007      2378.098 7        45.469
R24  20100652.277 8 107487222.34308      6211.274 8        50.313    20100658.679 7  83601202.96407      4830.666 7        44.500
S23  38766780.865 7 203720803.56607      3556.224 7        44.031
S36  38176457.493 7 200618648.77207      3560.521 7        43.656
> 2023 06 09 15 29 10.0000000  0 37
C06  39158189.248 3                      4000.438 3        23.594    39158192.188 4                      3093.157 4        29.156
C09  39019039.206 4 203182377.10704      4580.277 4        28.719    39019048.912 4                      3541.147 4        24.281
C16  39307107.807 4                      3827.860 4        26.406
C20  23691455.267 7 123367628.40107      6423.248 7        47.031
C27  24313731.713 7 126607976.09107       426.349 7        46.688
C29  23337283.656 8 121523367.27408      5873.984 8        48.406
C30  21667362.344 8 112827636.86908      2694.870 8        52.531
C32  21693251.822 8 112962454.46308      3602.543 8        51.125
E02  27291296.127 5 143416784.32005      2390.988 5        32.750    27291306.700 5 109890785.81005      1831.779 5        34.438
E04  24279110.852 8 127587593.51608      5395.502 8        48.531    24279118.313 7  97761946.72707      4134.385 7        46.781
E10  23580343.228 7 123915536.55807      2763.728 7        46.781    23580350.622 7  94948298.30507      2117.664 7        45.219
E11  22612855.894 7 118831357.19707      4187.347 7        46.188    22612859.067 7  91052614.67707      3208.471 7        44.875
E12  24904826.366 5 130875739.19605      1683.601 5        32.313    24904832.758 5 100281433.25505      1290.558 5        33.375
E19  25730001.986 5 135212072.92705      2214.373 5        32.906    25730009.326 4                      1697.389 4        28.063
E30  28493301.810 4 149733511.96504      4672.601 4        27.781    28493313.014 4                      3580.779 4        29.656
E36  26172461.695 7 137537215.89707      6009.531 7        42.063    26172472.442 7 105385707.88307      4604.686 7        42.719
G01  20052978.776 8 105379114.15208      2578.322 8        49.469    20052984.307 8  82113616.15008      2009.082 8        49.406    20052984.710 7  82113620.16107      2009.053 7        44.813
G02  21217196.807 7 111497116.32007      2210.941 7        45.531    21217197.938 5  86880879.08505      1722.821 5        31.625
G03  20381671.114 8 107106406.78908      4764.227 8        50.469    20381676.600 8  83459559.22108      3712.383 8        53.156    20381677.101 7  83459563.21407      3712.328 7        47.188
G04  23673436.289 5 124404763.71905      7288.762 5        32.875    23673448.326 1  96938810.29501      5679.635 1         9.406    23673446.551 5                      5680.719 5        31.031
G14                                                                                                                                  24427618.500 4                       716.304 4        26.094
G17  21991106.347 7 115564042.24007      5427.486 7        47.125    21991109.580 5  90049921.15805      4229.206 5        34.938    21991109.768 7  90049919.18007      4228.955 7        42.000
G19  23304341.119 7 122465158.61407      6882.554 7        42.563    23304343.230 4  95427392.97204      5363.010 4        26.031
G21  21815863.277 6 114643132.27406      1618.351 6        41.969    21815866.152 4  89332322.71904      1261.087 4        25.625
G28  24334644.104 4                      5390.676 4        26.719
G32  24027675.279 5                       768.960 5        33.281                                                                    24027685.192 5  98389537.10905       600.995 5        30.000
R01  20510230.643 7 109638932.24507      6810.327 7        46.250    20510240.089 6  85274776.77706      5296.801 6        41.844
R07  22125891.117 5                      -201.194 5        33.500    22125902.417 5                      -155.626 5        31.563
R08  19319248.170 8 103453699.66008      2735.470 8        50.031    19319253.018 7  80464010.61607      2127.646 7        45.531
R15  23731668.325 5 126815000.67405      1804.098 5        35.719    23731678.638 6  98634024.05206      1403.517 6        41.219
R16  23777995.715 7 127017821.39507      4811.644 7        42.938    23778006.147 6  98791661.51006      3741.302 6        36.781
R17  24281656.888 5 129936053.58905      7779.204 5        35.563    24281665.747 5 101061413.75505      6051.457 5        33.563
R22  23169400.337 6 123679836.60106      -267.804 6        40.844    23169411.764 6  96195465.68706      -208.592 6        39.344
R23  19364911.868 7 103589217.67007      2377.447 7        45.969
R24  20099490.804 8 107481011.23008      6210.868 8        50.813    20099497.220 7  83596372.09007      4830.838 7        44.813
S23  38766103.342 7 203717247.59207      3555.958 7        42.844
S36  38175782.595 7 200615088.23107      3560.544 7        45.094
> 2023 06 09 15 29 11.0000000  0 36
C06  39157421.489 4                      3998.958 4        26.938    39157423.414 5                      3092.608 5        31.063
C09  39018159.361 4 203177797.70604      4578.809 4        29.125    39018168.713 3                      3540.209 3        22.156
C16  39306372.874 4                      3826.565 4        25.844
C20  23690221.743 7 123361205.88107      6422.600 7        47.594
C27  24313649.932 7 126607549.97807       425.876 7        46.625
C29  23336155.832 8 121517494.27508      5873.335 8        48.156
C30  21666844.919 8 112824942.88208      2693.922 8        52.344
C32  21692560.130 8 112958852.75308      3601.668 8        51.188
E02  27290840.992 5 143414394.22405      2390.266 5        32.063    27290852.200 5 109888954.47605      1831.444 5        34.531
E04  24278084.186 8 127582198.42408      5395.084 8        48.188    24278091.637 7  97757812.83007      4133.808 7        47.500
E10  23579817.437 7 123912773.51607      2762.979 7        46.969    23579824.607 7  94946181.16807      2116.969 7        45.031
E11  22612059.127 7 118827170.65907      4186.657 7        46.313    22612062.340 7  91049406.81407      3208.044 7        44.813
E12  24904506.100 6 130874055.83906      1682.847 6        36.813    24904512.134 5 100280143.42305      1289.432 5        34.875
E19  25729581.394 4 135209858.94804      2214.284 4        26.844    25729588.077 4                      1696.741 4        24.156
E30  28492412.771 4 149728839.91304      4671.998 4        27.813    28492423.809 4                      3578.644 4        24.813
E36  26171318.149 7 137531206.75807      6010.056 7        42.844    26171328.905 6 105381103.46406      4604.699 6        41.406
G01  20052488.239 8 105376536.46508      2577.614 8        49.281    20052493.824 8  82111607.56708      2008.526 8        49.594    20052494.459 7  82111611.57207      2008.303 7        44.688
G02  21216776.247 7 111494906.11007      2209.674 7        44.781    21216777.328 5  86879156.84005      1721.819 5        31.656
G03  20380764.774 8 107101643.60808      4763.458 8        50.406    20380770.184 8  83455847.65108      3711.790 8        53.156    20380770.842 7  83455851.67207      3711.653 7        47.188
G04  23672048.963 5 124397473.93105      7290.195 5        34.594    23672061.229 1  96933129.93201      5680.709 1         9.406    23672059.735 5                      5680.042 5        33.500
G14                                                                                                                                  24427444.487 3                       714.484 3        23.063
G17  21990073.742 7 115558616.02307      5426.728 7        47.469    21990077.011 5  90045692.94405      4228.623 5        35.156    21990077.275 7  90045690.93807      4228.357 7        42.156
G19  23303031.497 7 122458277.06307      6881.979 7        42.719    23303033.800 4  95422030.71004      5362.602 4        25.969
G21  21815555.585 6 114641514.73006      1617.060 6        41.969    21815558.303 4  89331062.29104      1260.035 4        25.219
G32  24027529.893 3                       761.571 3        21.250                                                                    24027538.549 4  98388937.50304       599.548 4        26.594
R01  20508956.861 7 109632122.71607      6809.600 7        46.656    20508966.290 6  85269480.49606      5296.216 6        41.750
R07  22125931.045 4                      -203.728 4        29.844    22125939.817 5                      -155.119 5        30.031
R08  19318737.507 8 103450965.02808      2734.254 8        49.531    19318742.533 7  80461883.67607      2126.724 7        46.188
R15  23731331.071 6 126813196.61906      1804.498 6        37.813    23731341.039 6  98632620.86006      1403.216 6        41.813
R16  23777094.768 7 127013011.13307      4809.667 7        42.469    23777105.344 6  98787920.38206      3738.713 6        40.000
R17  24280202.045 5 129928274.60905      7778.923 5        33.000    24280212.560 5 101055363.55505      6050.492 5        33.531
R22  23169450.383 6                      -268.904 6        40.938    23169461.918 6                      -209.236 6        40.344
R23  19364467.952 7 103586841.13407      2376.082 7        45.938
R24  20098329.627 8 107474801.29408      6210.258 8        50.844    20098336.199 7  83591542.17707      4829.858 7        45.438
S23  38765428.650 7 203713691.95907      3555.345 7        42.875
S36  38175103.946 7 200611528.23207      3560.131 7        44.219
> 2023 06 09 15 29 12.0000000  0 36
C06  39156653.175 4                      3999.785 4        24.344    39156655.175 4                      3092.174 4        29.313
C09  39017280.230 5 203173219.51605      4575.751 5        30.813    39017289.221 4                      3540.440 4        28.719
C16  39305637.572 4                      3827.257 4        26.094    39305646.461 4                      2958.964 4        27.000
C20  23688988.467 7 123354784.10507      6420.910 7        47.781
C27  24313568.139 7 126607124.71507       424.486 7        45.375
C29  23335028.264 7 121511621.99107      5871.262 7        47.000
C30  21666327.808 8 112822249.90008      2691.787 8        52.688
C32  21691868.644 8 112955252.05508      3599.606 8        50.438
E02  27290386.783 5 143412004.96605      2388.147 5        31.094    27290397.502 5 109887123.72305      1830.444 5        32.781
E04  24277057.719 8 127576804.33308      5392.979 8        48.219    24277065.076 7  97753679.71007      4132.305 7        46.656
E10  23579291.981 7 123910011.31507      2761.291 7        46.188    23579298.869 7  94944064.68807      2115.851 7        44.469
E11  22611262.644 7 118822984.86807      4184.738 7        46.094    22611265.870 7  91046199.50407      3206.560 7        44.875
E12  24904185.647 5 130872373.40105      1681.406 5        32.406    24904191.867 5 100278854.29605      1288.359 5        33.094
E19  25729159.883 4 135207645.81304      2215.069 4        28.031    25729167.222 4                      1695.564 4        26.281
E30  28491524.413 5 149724168.61705      4667.860 5        30.781    28491535.593 4                      3577.677 4        28.813
E36  26170174.872 7 137525198.05407      6008.242 7        42.844    26170185.398 6 105376499.39906      4603.465 6        41.594
G01  20051997.907 8 105373959.81408      2575.623 8        48.813    20052003.536 8  82109599.78808      2006.980 8        49.469    20052003.971 7  82109603.79607      2006.828 7        43.969
G02  21216355.833 7 111492696.83707      2208.122 7        44.375    21216356.893 5  86877435.32805      1720.616 5        31.469
G03  20379858.467 8 107096881.40508      4761.342 8        50.125    20379863.965 8  83452136.84708      3710.136 8        53.156    20379864.459 7  83452140.85107      3710.116 7        47.063
G04  23670662.029 6 124390184.91806      7288.087 6        36.219    23670674.225 1  96927450.19401      5679.006 1         9.875    23670672.685 5                      5679.472 5        32.813
G14                                                                                                                                  24427271.877 3                       714.158 3        22.219
G17  21989041.442 7 115553190.68307      5424.033 7        46.781    21989044.620 5  90041465.40305      4226.521 5        35.250    21989044.870 6  90041463.36906      4226.901 6        41.844
G19  23301722.212 7 122451396.21507      6879.892 7        42.125    23301724.442 4  95416669.01404      5360.945 4        26.094
G21  21815248.013 6 114639898.05206      1615.479 6        39.688    21815250.686 4  89329802.54404      1258.820 4        24.625
G32  24027384.107 5                       768.214 5        31.625                                                                    24027392.678 5  98388338.58105       598.613 5        32.313
R01  20507683.348 7 109625314.30207      6807.578 7        46.719    20507692.058 6  85264185.02506      5294.541 6        40.625
R07  22125968.639 5                      -204.922 5        34.500    22125976.598 5                      -156.812 5        31.813
R08  19318226.934 8 103448231.68008      2732.178 8        48.781    19318232.259 7  80459757.74407      2124.951 7        45.906
R15  23730993.333 6 126811393.51906      1802.281 6        38.625    23731003.989 6  98631218.54406      1401.084 6        41.188
R16  23776194.589 7 127008202.18907      4808.256 7        42.563    23776204.868 6  98784180.13106      3738.823 6        39.219
R17  24278748.489 4 129920496.16404      7781.063 4        29.875    24278759.001 5 101049313.39705      6049.593 5        32.969
R22  23169500.840 6                      -269.809 6        40.250    23169512.214 6                      -210.560 6        39.531
R23  19364023.934 7 103584465.86707      2374.204 7        45.031
R24  20097168.348 8 107468592.24608      6208.165 8        51.156    20097175.275 7  83586712.91407      4828.568 7        44.031
S23  38764752.261 6 203710137.00906      3554.206 6        41.844
S36  38174427.124 7 200607968.87007      3558.607 7        45.156
> 2023 06 09 15 29 13.0000000  0 36
C06  39155886.667 4                      3997.959 4        27.688    39155886.839 4                      3091.235 4        27.344
C09  39016401.489 4 203168642.05304      4576.225 4        27.906    39016409.546 4                      3539.428 4        24.563
C16  39304903.046 5                      3825.768 5        31.563    39304911.290 4                      2959.204 4        28.313
C20  23687755.449 7 123348363.34507      6420.290 7        47.031
C27  24313486.710 7 126606700.56907       423.478 7        46.344
C29  23333900.782 7 121505750.76007      5870.474 7        47.469
C30  21665810.838 8 112819558.23308      2690.911 8        52.344
C32  21691177.409 8 112951652.70608      3598.721 8        50.875
E02  27289932.439 4 143409616.78504      2387.221 4        27.469    27289943.523 5 109885293.96305      1829.829 5        31.688
E04  24276031.547 8 127571411.48008      5392.305 8        48.094    24276038.846 7  97749547.53107      4131.833 7        47.063
E10  23578766.400 7 123907250.30207      2760.379 7        46.281    23578773.380 7  94941949.09407      2115.118 7        44.688
E11  22610466.280 7 118818800.14507      4183.965 7        46.063    22610469.584 7  91042993.03707      3205.925 7        44.719
E12  24903865.752 5 130870692.11005      1680.548 5        35.563    24903871.850 5 100277566.08005      1287.698 5        34.063
E19  25728738.979 5 135205434.14405      2210.317 5        31.375    25728745.803 4                      1694.693 4        24.969
E30  28490635.906 4 149719498.16304      4669.077 4        26.938    28490647.064 4                      3577.478 4        28.906
E36  26169031.698 7 137519190.12807      6007.378 7        43.406    26169042.010 7 105371895.94207      4603.155 7        42.094
G01  20051507.832 8 105371384.50508      2574.576 8        48.938    20051513.497 8  82107593.05408      2006.160 8        49.469    20051513.763 7  82107597.05107      2006.269 7        43.844
G02  21215935.354 7 111490488.83207      2207.454 7        44.188    21215936.682 5  86875714.80205      1720.092 5        31.156
G03  20378952.421 8 107092120.48108      4760.238 8        50.188    20378957.983 8  83448427.03808      3709.271 8        53.063    20378958.388 7  83448431.04207      3709.152 7        47.344
G04  23669275.486 6 124382896.94306      7287.116 6        36.219    23669287.349 2  96921771.25102      5678.272 2        12.031    23669285.790 5  96921769.31415      5678.520 5        34.438
G14                                                                                                                                  24427098.785 3                       714.907 3        21.813
G17  21988009.132 7 115547766.56407      5423.490 7        46.969    21988012.433 5  90037238.81105      4226.104 5        35.219    21988012.929 7  90037236.81807      4225.995 7        43.031
G19  23300413.021 7 122444516.51107      6879.007 7        42.563    23300415.298 4  95411308.23304      5360.228 4        26.500
G21  21814940.272 6 114638282.58906      1614.869 6        40.938    21814943.226 4  89328543.73904      1258.338 4        24.281
G32  24027238.963 5                       768.172 5        30.156                                                                    24027246.135 4  98387740.44104       598.184 4        28.719
R01  20506409.951 7 109618507.25207      6806.099 7        46.281    20506418.718 6  85258890.65106      5293.734 6        41.188
R07  22126005.082 6 118442236.98906      -204.323 6        38.781    22126013.339 6  92121765.64306      -159.207 6        37.500
R08  19317716.690 8 103445499.96008      2730.931 8        49.250    19317722.367 7  80457633.07207      2123.930 7        45.719
R15  23730655.986 6 126809592.11806      1800.268 6        39.375    23730666.988 6  98629817.28806      1400.715 6        39.125
R16  23775294.603 6 127003394.87606      4806.336 6        40.969    23775305.271 6  98780441.04706      3739.122 6        39.594
R17  24277294.996 5 129912718.89205      7776.816 5        32.000    24277305.781 6 101043263.79006      6049.151 6        36.500
R22  23169551.590 6                      -271.360 6        40.500    23169563.010 6                      -210.760 6        40.063
R23  19363579.956 7 103582092.20107      2372.747 7        45.188
R24  20096007.395 8 107462384.51108      6207.083 8        50.938    20096014.218 7  83581884.68907      4827.735 7        44.219
S23  38764077.433 7 203706582.94207      3553.411 7        42.719
S36  38173749.543 7 200604410.37607      3557.911 7        44.656
> 2023 06 09 15 29 14.0000000  0 36
C06  39155116.756 4                      3997.138 4        28.750    39155118.900 4                      3090.522 4        28.750
C09  39015522.678 4 203164064.99104      4576.982 4        28.781    39015532.164 4                      3539.386 4        25.313
C16  39304167.031 4                      3825.731 4        28.813    39304175.650 4                      2956.251 4        28.531
C20  23686522.598 7 123341943.28107      6419.912 7        47.969
C27  24313405.387 7 126606276.99907       423.441 7        46.438
C29  23332773.273 8 121499879.97208      5869.953 8        48.219
C30  21665294.094 8 112816867.38908      2690.359 8        52.156
C32  21690486.249 8 112948054.09408      3598.008 8        51.156
E02  27289477.272 4 143407229.07704      2388.176 4        27.219    27289488.364 4 109883464.46804      1829.076 4        27.500
E04  24275005.456 8 127566019.40808      5391.635 8        48.094    24275012.697 7  97745415.94707      4131.310 7        47.250
E10  23578241.114 7 123904489.79407      2759.904 7        46.656    23578248.051 7  94939833.88707      2114.955 7        45.125
E11  22609670.047 7 118814615.91507      4183.559 7        45.969    22609673.407 7  91039786.92207      3205.635 7        44.719
E12  24903545.850 5 130869011.24805      1680.283 5        35.250    24903551.902 5 100276278.10005      1287.841 5        33.094
E19  25728318.156 5 135203222.98105      2211.097 5        30.656    25728324.329 4                      1694.484 4        28.500
E30  28489747.063 4 149714828.31504      4669.959 4        25.188    28489758.664 5                      3577.864 5        34.250
E36  26167888.513 7 137513182.43307      6007.030 7        43.594    26167898.880 7 105367292.65507      4602.798 7        42.938
G01  20051018.207 8 105368809.87008      2574.433 8        50.031    20051023.577 8  82105586.84208      2006.051 8        49.500    20051023.675 7  82105590.86507      2005.636 7        44.313
G02  21215515.236 7 111488281.42607      2206.937 7        43.813    21215516.604 5  86873994.74805      1719.685 5        31.000
G03  20378046.618 8 107087360.29808      4759.618 8        50.438    20378052.140 8  83444717.80608      3708.790 8        53.063    20378052.551 7  83444721.79607      3708.854 7        47.250
G04  23667888.932 6 124375609.49906      7287.411 6        37.719    23667900.558 2  96916092.75302      5678.451 2        12.344    23667899.601 5  96916090.72105      5678.647 5        35.563
G14                                                                                                                                  24426926.249 3                       711.735 3        22.125
G17  21986977.139 7 115542343.10707      5422.578 7        46.844    21986980.394 5  90033012.74305      4225.376 5        35.469    21986981.016 7  90033010.73607      4225.683 7        42.563
G19  23299103.803 7 122437637.22707      6878.396 7        42.094    23299106.271 4  95405947.77304      5359.781 4        26.406
G21  21814632.946 6 114636667.62406      1614.228 6        41.344    21814635.861 3  89327285.31403      1257.878 3        23.750
G32  24027093.883 4                       766.084 4        28.969                                                                    24027101.565 5  98387142.78405       597.526 5        31.688
R01  20505136.754 7 109611701.12207      6805.600 7        46.563    20505145.588 6  85253597.01106      5293.477 6        41.031
R07  22126042.656 6 118442441.15706      -204.100 6        39.094    22126050.293 6  92121924.55106      -159.120 6        36.375
R08  19317206.767 8 103442769.23908      2729.844 8        49.688    19317212.366 7  80455509.17307      2123.031 7        45.594
R15  23730318.888 6 126807791.26606      1800.204 6        38.906    23730330.171 6  98628416.73606      1399.542 6        40.594
R16  23774394.673 7 126998588.39407      4804.740 7        43.906    23774405.034 6  98776702.65106      3737.196 6        36.906
R17  24275841.234 5 129904940.90805      7776.719 5        32.000    24275852.084 6 101037214.23606      6049.319 6        36.313
R22  23169602.239 6                      -271.302 6        40.500    23169613.663 6                      -210.741 6        40.656
R23  19363136.366 7 103579719.44907      2372.015 7        45.781
R24  20094846.564 8 107456177.43508      6206.431 8        50.781    20094853.078 7  83577056.94307      4827.205 7        43.969
S23  38763400.957 7 203703029.35207      3553.336 7        42.688
S36  38173072.662 7 200600852.27307      3557.724 7        44.531
> 2023 06 09 15 29 15.0000000  0 36
C06  39154349.225 4                      3996.156 4        26.156    39154350.980 4                      3090.313 4        28.563
C09                                                                  39014653.360 4                      3539.140 4        26.563
C16  39303431.597 3                      3825.542 3        20.531    39303441.535 4                      2955.240 4        27.969
C20  23685289.843 7 123335523.80107      6419.507 7        47.375
C27  24313324.183 7 126605854.10007       422.034 7        45.844
C29  23331646.000 7 121494010.10107      5869.633 7        47.219
C30  21664777.411 8 112814177.45808      2689.335 8        52.531
C32  21689795.312 8 112944456.46708      3597.217 8        50.594
E02  27289024.364 4 143404842.61404      2387.871 4        29.250    27289033.515 5 109881635.76905      1828.041 5        30.719
E04  24273979.594 8 127560628.12908      5390.790 8        48.375    24273986.799 7  97741284.96907      4130.554 7        46.313
E10  23577716.007 7 123901730.10807      2759.410 7        46.156    23577723.056 7  94937719.33007      2114.246 7        44.594
E11  22608873.932 7 118810432.44507      4183.225 7        46.094    22608877.292 7  91036581.42107      3205.303 7        44.781
E12  24903226.277 5 130867331.32905      1679.180 5        32.188    24903231.877 5 100274990.88305      1287.055 5        31.813
E19  25727897.354 6 135201012.60206      2210.059 6        36.938    25727904.167 4                      1693.233 4        27.281
E30                                                                  28488870.761 5 114712874.40215      3576.873 5        32.188
E36  26166745.365 7 137507175.35307      6007.017 7        42.656    26166755.812 7 105362689.80407      4602.709 7        42.156
G01  20050528.492 8 105366236.31308      2573.052 8        49.375    20050533.867 8  82103581.47308      2004.981 8        49.594    20050534.091 7  82103585.47207      2005.041 7        44.063
G02  21215095.587 7 111486074.98207      2205.948 7        44.844    21215096.705 5  86872275.43805      1718.926 5        30.875
G03  20377140.913 8 107082601.04608      4759.154 8        50.094    20377146.475 8  83441009.29908      3708.431 8        53.000    20377147.110 7  83441013.32807      3708.116 7        47.594
G04  23666502.287 6 124368322.53306      7286.691 6        37.906    23666513.859 2  96910414.60402      5677.922 2        13.563    23666512.871 5  96910412.62605      5678.212 5        35.719
G14                                                                                                                                  24426752.115 3                       710.952 3        23.656
G17  21985945.107 7 115536920.66207      5422.064 7        46.625    21985948.590 5  90028787.46505      4224.978 5        35.625    21985949.189 7  90028785.48807      4224.859 7        42.844
G19  23297794.619 7 122430758.87407      6878.011 7        42.406    23297797.414 4  95400588.02904      5359.474 4        26.344
G21  21814325.826 6 114635053.62206      1613.074 6        39.719    21814328.688 3  89326027.65803      1256.925 3        23.656
G32  24026946.163 5                       765.709 5        31.750                                                                    24026957.149 4  98386545.76904       597.041 4        29.594
R01  20503863.746 7 109604895.97607      6804.486 7        46.563    20503872.579 6  85248304.13006      5292.259 6        40.688
R07  22126080.392 5 118442646.39205      -206.286 5        35.500    22126088.821 6  92122084.13006      -161.235 6        36.625
R08  19316697.226 8 103440039.85408      2728.782 8        49.688    19316702.660 7  80453386.32707      2122.300 7        45.438
R15  23729982.058 6 126805991.73906      1798.852 6        40.500    23729993.404 6  98627017.13406      1399.549 6        40.000
R16  23773495.278 7 126993783.43707      4804.426 7        43.406    23773504.672 6  98772965.45306      3737.106 6        37.938
R17                                                                  24274398.811 6 101031165.09306      6048.633 6        38.719
R22  23169653.037 6 123681187.12606      -272.248 6        39.656    23169665.122 6  96196516.02006      -212.026 6        40.125
R23  19362693.089 7 103577347.94907      2370.876 7        45.375
R24  20093685.968 8 107449971.36208      6205.502 8        51.406    20093692.580 7  83572229.96907      4827.146 7        44.906
S23  38762723.699 7 203699476.09607      3552.830 7        43.125
S36  38172396.414 7 200597294.53307      3557.699 7        45.500
> 2023 06 09 15 29 16.0000000  0 36
C06  39153581.474 3                      3998.178 3        21.719    39153583.309 5                      3089.963 5        30.375
C09  39013764.222 4 203154913.17604      4574.866 4        28.313    39013774.673 3                      3538.773 3        23.406
C16  39302697.695 4                      3824.987 4        26.219    39302707.506 4                      2957.866 4        28.094
C20  23684057.165 7 123329104.69507      6418.417 7        47.125
C27  24313243.204 7 126605431.51807       422.055 7        46.625
C29  23330519.023 8 121488140.74608      5868.693 8        48.469
C30  21664260.968 8 112811488.23908      2688.561 8        52.406
C32  21689104.534 8 112940859.55308      3596.082 8        51.156
E02  27288570.343 4 143402456.76604      2384.706 4        29.781    27288580.036 4 109879807.58604      1826.980 4        27.594
E04  24272953.750 8 127555237.43208      5390.187 8        48.281    24272960.987 7  97737154.42007      4130.093 7        47.188
E10  23577190.786 7 123898970.94307      2758.682 7        46.219    23577197.942 7  94935605.15707      2113.814 7        44.719
E11  22608078.073 7 118806249.52307      4182.428 7        46.094    22608081.276 7  91033376.32907      3204.652 7        44.844
E12  24902907.007 5 130865651.59305      1679.240 5        35.031    24902912.211 5 100273703.84005      1286.153 5        34.000
E19  25727476.899 5 135198803.14205      2208.666 5        34.938    25727483.566 4                      1692.958 4        25.625
E30                                                                  28487982.585 4 114709297.61504      3573.509 4        28.094
E36  26165602.119 6 137501168.56506      6006.078 6        41.781    26165612.818 7 105358087.23007      4601.872 7        42.000
G01  20050038.899 8 105363663.47408      2572.143 8        49.281    20050044.296 8  82101576.66208      2004.265 8        49.563    20050044.691 7  82101580.66307      2004.350 7        44.344
G02  21214675.756 7 111483869.09507      2205.006 7        44.156    21214676.917 5  86870556.56205      1718.189 5        30.781
G03  20376235.293 8 107077842.49308      4757.835 8        50.438    20376240.949 8  83437301.33608      3707.403 8        53.031    20376241.543 7  83437305.34907      3707.413 7        47.063
G04  23665115.518 6 124361035.81906      7286.548 6        39.844    23665127.252 2  96904736.66302      5677.802 2        14.844    23665126.287 6  96904734.69206      5677.079 6        37.406
G14                                                                                                                                  24426580.747 3                       710.299 3        23.469
G17  21984913.306 7 115531498.98307      5420.821 7        46.906    21984916.919 5  90024562.77405      4224.031 5        35.438    21984917.399 7  90024560.79607      4224.032 7        42.219
G19  23296485.849 7 122423881.18407      6876.873 7        43.563    23296488.682 4  95395228.79204      5358.606 4        26.375
G21  21814018.896 6 114633439.85306      1612.890 6        41.031    21814021.655 3  89324770.17003      1256.793 3        23.156
G32  24026799.964 5                       764.126 5        34.844                                                                    24026811.223 5  98385949.43705       596.706 5        34.000
R01  20502590.880 7 109598091.49107      6803.495 7        47.031    20502599.813 6  85243011.74406      5291.756 6        41.156
R07  22126119.132 6 118442852.22006      -206.616 6        39.813    22126126.827 5  92122244.17105      -160.893 5        34.656
R08  19316187.885 8 103437311.57608      2727.289 8        49.406    19316193.212 7  80451264.31607      2121.019 7        45.219
R15  23729645.769 6 126804193.25906      1797.861 6        39.656    23729656.306 6  98625618.25806      1398.148 6        40.781
R16  23772596.167 7 126988979.72807      4802.853 7        44.031    23772605.413 6  98769229.11706      3736.231 6        39.719
R17  24272935.276 5 129889387.76905      7776.600 5        34.219    24272945.730 6 101025116.08706      6048.137 6        37.719
R22  23169704.228 6 123681459.11406      -272.275 6        41.250    23169716.357 6  96196727.65106      -211.999 6        41.063
R23  19362249.851 7 103574977.34007      2369.726 7        45.656
R24  20092525.553 8 107443766.06508      6204.609 8        51.344    20092532.430 7  83567403.65107      4825.695 7        44.813
S23  38762047.862 7 203695923.11307      3552.705 7        43.938
S36  38171719.673 7 200593736.96107      3557.353 7        45.000
> 2023 06 09 15 29 17.0000000  0 36
C06  39152814.685 3                      3997.023 3        23.063    39152816.140 5                      3089.391 5        30.813
C09  39012885.209 5 203150338.02405      4574.139 5        33.781    39012897.068 4                      3538.202 4        26.844
C16  39301963.616 4                      3824.033 4        27.063    39301974.052 4                      2956.123 4        29.000
C20  23682824.545 7 123322686.43707      6417.729 7        47.031
C27  24313162.306 7 126605010.00907       420.914 7        44.875
C29  23329391.946 8 121482271.90908      5868.453 8        48.375
C30  21663744.768 8 112808800.03408      2687.672 8        52.625
C32  21688414.049 8 112937263.61208      3595.503 8        51.000
E02  27288116.299 4 143400071.37504      2385.180 4        28.906    27288126.500 4 109877979.84204      1826.119 4        28.531
E04  24271928.023 8 127549847.79608      5389.106 8        48.438    24271935.370 7  97733024.71707      4129.313 7        46.719
E10  23576665.869 7 123896212.57707      2757.899 7        46.906    23576673.093 7  94933491.61807      2113.250 7        45.188
E11  22607282.181 7 118802067.21907      4181.938 7        45.719    22607285.463 7  91030171.70707      3204.439 7        44.688
E12  24902587.088 5 130863972.90705      1678.202 5        31.344    24902592.682 5 100272417.51505      1286.811 5        33.000
E19  25727056.914 5 135196594.57505      2208.201 5        35.719    25727063.189 5                      1692.007 5        31.313
E30  28487086.982 4                      4666.312 4        27.906    28487094.512 5 114705721.39805      3575.609 5        32.406
E36  26164458.947 6 137495161.99606      6006.394 6        41.625    26164469.809 6 105353484.78006      4602.280 6        41.531
G01  20049549.409 8 105361091.57308      2571.320 8        49.719    20049554.898 8  82099572.58408      2003.628 8        49.688    20049555.036 7  82099576.57907      2003.553 7        44.781
G02  21214256.013 7 111481664.15807      2204.750 7        44.188    21214257.335 5  86868838.42505      1717.982 5        30.625
G03  20375330.031 8 107073084.84708      4757.019 8        50.344    20375335.592 8  83433594.08208      3706.764 8        52.969    20375336.185 7  83433598.08507      3706.940 7        46.844
G04  23663729.031 6 124353749.99406      7285.275 6        39.250    23663740.787 2  96899059.40702      5676.807 2        16.406    23663739.548 6  96899057.40706      5676.729 6        36.938
G14                                                                                                                                  24426407.874 3                       708.591 3        20.719
G17  21983881.936 7 115526077.94607      5420.848 7        47.844    21983885.346 5  90020338.59605      4224.030 5        35.531    21983885.659 7  90020336.59807      4223.578 7        42.469
G19  23295176.999 6 122417003.82506      6876.742 6        41.500    23295180.034 4  95389869.81004      5358.494 4        25.938
G21  21813712.181 6 114631827.11706      1612.446 6        41.000    21813714.803 3  89323513.49403      1256.455 3        22.875
G32  24026653.728 6 126260920.82816       764.248 6        39.938    24026662.026 4  98385163.72014       595.525 4        27.250    24026664.569 5  98385353.75805       594.506 5        35.125
R01  20501318.196 7 109591288.17607      6802.716 7        46.375    20501326.665 6  85237720.32106      5290.626 6        40.531
R07  22126157.506 7 118443058.57407      -207.146 7        42.250    22126164.758 6  92122404.74506      -161.493 6        38.000
R08  19315678.651 8 103434584.47308      2726.326 8        49.844    19315683.708 7  80449143.24407      2120.424 7        46.000
R15  23729308.985 6 126802395.41306      1797.591 6        37.469    23729319.937 7  98624220.07707      1398.058 7        43.063
R16  23771696.987 7 126984176.84007      4802.086 7        43.875    23771706.798 6  98765493.62706      3734.910 6        38.813
R17  24271481.702 6 129881610.03906      7776.688 6        36.250    24271492.982 6 101019067.13206      6048.713 6        39.313
R22  23169755.463 6 123681732.21106      -273.195 6        40.781    23169767.674 6  96196940.02306      -213.248 6        39.344
R23  19361806.797 7 103572608.00307      2368.860 7        46.125
R24  20091365.133 8 107437561.43908      6204.177 8        50.688    20091372.036 7  83562577.81007      4825.428 7        44.250
S23  38761371.261 7 203692370.83007      3551.652 7        42.469
S36  38171043.634 7 200590180.15007      3556.395 7        46.063
> 2023 06 09 15 29 18.0000000  0 37
C06  39152046.768 3                      3996.429 3        20.188    39152048.823 4                      3089.205 4        25.188
C09  39012007.692 4                      4575.167 4        27.063    39012019.114 4                      3537.171 4        28.313
C16  39301229.716 5                      3822.582 5        31.000    39301239.556 5                      2956.556 5        32.344
C20  23681592.075 7 123316269.20507      6417.556 7        46.875
C27  24313081.490 7 126604589.12807       420.958 7        46.438
C29  23328265.243 8 121476404.13408      5867.976 8        48.219
C30  21663228.741 8 112806112.99408      2687.139 8        52.000
C32  21687723.654 8 112933668.79008      3594.888 8        51.125
E02  27287661.735 5 143397687.25705      2384.942 5        30.250    27287672.782 4 109876153.14204      1826.892 4        29.375
E04  24270902.635 8 127544459.12908      5388.754 8        48.375    24270909.854 7  97728895.74007      4129.029 7        47.219
E10  23576141.110 7 123893455.09107      2757.609 7        46.781    23576148.361 7  94931378.73407      2113.138 7        45.281
E11  22606486.506 7 118797885.85307      4181.564 7        45.688    22606489.696 7  91026967.80507      3204.115 7        44.594
E12  24902267.892 5 130862294.88305      1678.040 5        33.875    24902273.841 5 100271131.76305      1286.126 5        34.688
E19  25726636.701 5 135194386.79505      2208.424 5        33.313    25726643.402 4                      1691.028 4        29.406
E30  28486197.037 5                      4665.722 5        32.188    28486206.818 5 114702145.88105      3574.780 5        35.156
E36  26163316.292 7 137489156.34207      6005.979 7        42.250    26163327.079 7 105348883.06907      4602.206 7        42.219
G01  20049060.199 8 105358520.76508      2570.829 8        49.563    20049065.708 8  82097569.35408      2003.247 8        49.906    20049065.574 7  82097573.35607      2003.018 7        44.375
G02  21213836.504 7 111479460.17807      2203.936 7        44.906    21213837.934 5  86867121.04005      1717.359 5        30.719
G03  20374424.760 8 107068328.39908      4756.498 8        50.031    20374430.461 8  83429887.76308      3706.358 8        52.688    20374431.114 7  83429891.78307      3706.420 7        46.438
G04  23662342.609 7 124346465.00607      7285.382 7        42.250    23662354.427 3  96893382.79003      5676.937 3        18.969    23662352.943 6  96893380.83306      5676.857 6        38.469
G14                                                                                                                                  24426237.391 3                       708.938 3        20.125
G17  21982850.820 7 115520658.20507      5419.982 7        47.625    21982854.017 5  90016115.42705      4223.356 5        35.656    21982854.187 6  90016113.45006      4223.287 6        41.344
G19  23293868.620 7 122410127.67107      6876.487 7        42.313    23293871.539 4  95384511.76804      5358.283 4        26.031
G21  21813405.437 6 114630215.18506      1611.986 6        40.719    21813408.168 3  89322257.44303      1256.087 3        23.000
G28                                                                                                                                  24326484.519 4                      4193.923 4        28.219
G32  24026508.373 6 126260157.00006       762.323 6        40.188    24026516.694 4  98384568.53704       593.973 4        27.906    24026517.978 5  98384758.59405       593.287 5        33.656
R01  20500045.660 7 109584486.20307      6801.882 7        45.719    20500054.382 6  85232429.89006      5290.403 6        41.000
R07  22126195.470 7 118443265.75707      -207.186 7        44.094    22126203.553 6  92122565.87106      -161.622 6        37.094
R08  19315169.939 8 103431858.77508      2725.640 8        50.094    19315174.796 7  80447023.26707      2119.739 7        46.406
R15  23728972.938 6 126800599.34506      1796.794 6        38.906    23728984.025 7  98622823.04407      1397.557 7        42.625
R16  23770798.554 7 126979375.37907      4800.082 7        42.125    23770808.230 6  98761759.17606      3734.592 6        37.688
R17  24270028.867 5 129873833.51605      7776.563 5        35.000    24270039.918 6 101013018.72106      6049.346 6        37.813
R22  23169806.704 6 123682006.03006      -273.974 6        41.063    23169818.941 6  96197152.95606      -213.132 6        41.531
R23  19361364.356 7 103570239.95207      2368.170 7        46.094
R24  20090205.114 8 107431358.03808      6203.711 8        51.094    20090211.797 7  83557752.96107      4824.926 7        44.719
S23  38760693.985 7 203688819.01807      3552.171 7        43.438
S36  38170365.533 7 200586623.97507      3556.571 7        45.063
> 2023 06 09 15 29 19.0000000  0 37
C06  39151279.706 3                      3996.370 3        20.906    39151281.309 3                      3089.373 3        23.219
C09  39011130.798 4                      4583.446 4        25.375    39011141.737 5                      3537.012 5        30.063
C16  39300497.108 4                      3821.613 4        25.125    39300504.877 4                      2952.455 4        26.250
C20  23680359.705 8 123309852.37708      6416.820 8        48.188
C27  24313000.688 7 126604168.88307       420.299 7        46.969
C29  23327138.461 8 121470536.93208      5866.807 8        48.063
C30  21662712.890 8 112803426.72008      2685.854 8        51.875
C32  21687033.504 8 112930074.72208      3593.617 8        51.344
E02  27287208.375 5 143395303.88405      2382.193 5        31.625    27287219.069 4 109874326.78504      1826.141 4        29.313
E04  24269877.448 8 127539071.19008      5387.673 8        48.406    24269884.511 7  97724767.32307      4128.371 7        47.375
E10  23575616.522 7 123890698.18907      2756.570 7        46.781    23575623.737 7  94929266.30707      2112.224 7        45.125
E11  22605690.799 7 118793705.02407      4180.599 7        46.000    22605694.199 7  91023764.30907      3203.271 7        44.875
E12  24901948.627 5 130860617.38405      1677.766 5        35.625    24901954.652 5 100269846.40805      1285.775 5        34.531
E19  25726216.744 5 135192179.92905      2206.546 5        35.000    25726223.624 4                      1691.148 4        25.094
E30  28485308.535 5 149691306.75515      4667.732 5        35.031    28485318.629 6 114698571.04206      3573.826 6        36.750
E36  26162173.752 7 137483150.90307      6004.865 7        42.094    26162184.169 6 105344281.50306      4601.131 6        41.750
G01  20048571.174 8 105355950.75008      2569.580 8        49.438    20048576.660 8  82095566.74108      2002.271 8        49.906    20048576.405 7  82095570.74007      2002.334 7        44.406
G02  21213417.101 7 111477256.83307      2203.460 7        44.875    21213418.666 5  86865404.14905      1716.977 5        30.656
G03  20373519.811 8 107063572.64908      4755.248 8        50.250    20373525.454 8  83426181.99108      3705.386 8        52.563    20373526.125 7  83426185.99407      3705.464 7        46.844
G04  23660956.880 7 124339180.47607      7284.042 7        42.906    23660968.121 3  96887706.54003      5675.873 3        21.188    23660966.766 6  96887704.51306      5676.285 6        40.250
G14                                                                                                                                  24426051.183 3                       710.281 3        23.875
G17  21981819.650 7 115515239.16407      5418.282 7        47.250    21981822.807 5  90011892.80505      4222.031 5        35.438    21981822.735 6  90011890.82106      4221.933 6        41.563
G19  23292560.335 7 122403252.10007      6875.016 7        42.750    23292563.259 4  95379154.19704      5357.145 4        26.000
G21  21813098.634 6 114628603.77406      1611.993 6        41.656    21813101.576 3  89321001.80003      1256.103 3        22.875
G28                                                                                                                                  24325461.144 4                      4191.770 4        25.219
G32  24026363.358 6 126259394.01106       762.778 6        40.656    24026371.434 4  98383974.01504       594.385 4        28.906    24026372.104 5  98384164.08905       593.244 5        35.094
R01  20498773.228 7 109577684.99707      6800.995 7        45.531    20498782.031 6  85227140.06406      5289.315 6        41.313
R07  22126234.453 7 118443473.66807      -208.221 7        42.594    22126241.992 6  92122727.56306      -162.042 6        38.063
R08  19314661.270 8 103429134.16908      2724.211 8        49.938    19314666.108 7  80444904.13607      2118.671 7        46.063
R15  23728637.222 6 126798804.07006      1794.415 6        40.063    23728648.125 6  98621426.69606      1395.784 6        41.563
R16  23769899.879 6 126974574.99006      4798.665 6        39.938    23769910.932 5  98758026.13305      3730.848 5        30.313
R17  24268575.133 6 129866057.08706      7775.719 6        37.969    24268586.681 6 101006970.45706      6048.383 6        37.469
R22  23169857.989 7 123682280.40407      -274.345 7        43.188    23169870.530 7  96197366.39507      -213.385 7        42.156
R23  19360921.710 7 103567872.88507      2366.770 7        46.375
R24  20089045.126 8 107425155.38008      6202.028 8        50.938    20089052.082 7  83552928.68107      4823.830 7        45.781
S23  38760019.490 7 203685267.63107      3551.715 7        44.313
S36  38169690.908 7 200583067.98707      3556.019 7        44.531
> 2023 06 09 15 29 20.0000000  0 37
C06  39150512.877 3                      3992.370 3        21.375    39150514.363 4                      3088.083 4        27.438
C09  39010253.546 5                      4573.877 5        31.313    39010264.324 4                      3536.372 4        29.625
C16  39299762.841 4                      3821.160 4        25.063    39299770.673 4                      2956.881 4        26.563
C20  23679127.634 7 123303436.03407      6416.646 7        46.688
C27  24312920.091 7 126603748.96807       420.305 7        46.344
C29  23326011.751 7 121464670.15307      5867.288 7        47.656
C30  21662197.267 8 112800741.10608      2685.992 8        52.594
C32  21686343.474 8 112926481.33108      3593.795 8        51.000
E02  27286755.033 5 143392920.98505      2382.010 5        32.000    27286765.508 5 109872500.88905      1826.141 5        30.938
E04  24268852.248 8 127533683.75508      5387.827 8        48.594    24268859.320 7  97720639.29307      4128.306 7        46.438
E10  23575091.974 7 123887941.76307      2757.037 7        46.281    23575099.162 7  94927154.24507      2112.448 7        44.750
E11  22604895.400 7 118789524.63807      4180.939 7        46.125    22604898.751 7  91020561.15707      3203.622 7        44.563
E12  24901629.957 5 130858940.47905      1677.778 5        32.563    24901635.526 5 100268561.49705      1285.276 5        33.031
E19  25725796.743 6 135189973.62806      2207.104 6        36.031    25725803.953 4                      1690.688 4        26.688
E30  28484420.055 6 149686641.91906      4665.502 6        36.594    28484430.618 5 114694996.58005      3575.034 5        34.563
E36  26161030.663 6 137477145.72406      6005.693 6        40.438    26161041.387 6 105339680.10806      4601.877 6        41.313
G01  20048082.162 8 105353381.39908      2569.574 8        49.344    20048087.742 8  82093564.65108      2002.262 8        49.875    20048087.393 7  82093568.65607      2002.473 7        44.531
G02  21212997.998 7 111475054.11407      2203.406 7        44.969    21212999.518 5  86863687.74105      1716.948 5        30.750
G03  20372614.996 8 107058817.59108      4755.406 8        50.250    20372620.585 8  83422476.74808      3705.513 8        52.531    20372621.153 7  83422480.74707      3705.407 7        47.188
G04  23659570.936 7 124331896.12607      7284.730 7        43.438    23659581.847 3  96882030.42303      5676.412 3        23.406    23659580.765 6  96882028.47406      5676.142 6        40.094
G14                                                                                                                                  24425879.688 3                       710.274 3        23.188
G17  21980788.476 7 115509820.77907      5418.626 7        46.938    21980791.709 5  90007670.68505      4222.314 5        35.406    21980791.517 7  90007668.69407      4222.529 7        42.000
G19  23291252.403 7 122396377.05007      6875.270 7        42.844    23291255.014 4  95373797.02104      5357.360 4        25.938
G21  21812792.028 6 114626992.96606      1611.795 6        40.438    21812795.037 3  89319746.62103      1255.957 3        23.094
G28  24324427.032 3                      5379.641 3        21.344                                                                    24324436.726 4                      4192.055 4        27.375
G32  24026218.281 6 126258631.53906       762.968 6        38.125    24026226.298 4  98383379.89004       594.532 4        29.250    24026226.848 6  98383569.85306       595.893 6        37.406
R01  20497501.101 7 109570884.52807      6800.574 7        46.156    20497510.176 6  85221850.79806      5289.462 6        41.906
R07  22126273.088 7 118443681.99707      -208.514 7        44.031    22126280.756 6  92122889.64206      -161.425 6        40.906
R08  19314152.520 8 103426410.51708      2723.776 8        49.313    19314157.412 7  80442785.72207      2118.572 7        45.719
R15  23728301.533 6 126797009.75406      1794.232 6        40.469    23728312.454 6  98620031.04006      1395.781 6        40.219
R16  23769001.302 6 126969775.60006      4798.693 6        36.938
R17  24267122.259 6 129858280.79306      7776.459 6        37.219    24267133.001 6 101000922.19506      6048.579 6        37.125
R22  23169909.225 6 123682555.21606      -274.328 6        41.781    23169921.981 6  96197580.04806      -213.226 6        41.156
R23  19360479.395 7 103565506.75107      2366.458 7        45.719
R24  20087885.401 8 107418953.33508      6202.471 8        50.469    20087892.277 7  83548104.83907      4824.107 7        45.031
S23  38759343.828 7 203681716.34707      3551.436 7        42.844
S36  38169013.614 7 200579512.23907      3556.273 7        45.094
> 2023 06 09 15 29 21.0000000  0 36
C06  39149745.542 4                      3994.296 4        24.969    39149747.610 5                      3087.847 5        32.781
C09  39009375.458 4                      4573.275 4        27.500    39009387.345 3                      3536.318 3        23.875
C16  39299026.812 5                      3821.015 5        35.281    39299036.356 5                      2954.269 5        33.281
C20  23677895.479 7 123297020.18407      6415.415 7        46.656
C27  24312839.660 7 126603329.62207       418.862 7        46.500
C29  23324885.363 8 121458803.92108      5865.696 8        48.281
C30  21661681.600 8 112798056.24508      2684.196 8        52.406
C32  21685653.592 8 112922888.69808      3592.011 8        51.250
E02  27286301.410 5 143390538.63505      2382.250 5        30.063    27286312.242 5 109870675.46905      1825.089 5        30.469
E04  24267827.227 8 127528297.04308      5386.060 8        48.656    24267834.227 7  97716511.81907      4126.930 7        46.969
E10  23574567.698 7 123885185.89807      2755.314 7        47.000    23574574.797 7  94925042.60807      2111.037 7        45.156
E11  22604099.983 7 118785344.73307      4179.391 7        45.875    22604103.343 7  91017358.37907      3202.419 7        44.375
E12  24901310.446 5 130857263.92705      1675.789 5        34.438    24901316.806 5 100267276.93505      1283.531 5        34.375
E19  25725376.880 5 135187768.04605      2204.671 5        31.344    25725384.072 4                      1689.831 4        28.031
E30  28483531.928 5 149681977.78505      4663.771 5        35.656    28483543.135 6 114691422.86406      3573.492 6        36.094
E36  26159887.899 7 137471140.75807      6004.976 7        42.219    26159898.704 6 105335078.90806      4601.027 6        41.438
G01  20047593.346 8 105350812.78908      2567.825 8        49.750    20047598.967 8  82091563.13808      2000.901 8        49.906    20047598.774 7  82091567.12907      2001.130 7        44.313
G02  21212579.066 7 111472852.06307      2200.887 7        45.156    21212580.474 5  86861971.85505      1714.967 5        30.719
G03  20371710.217 8 107054063.18708      4754.109 8        50.156    20371715.842 8  83418772.01708      3704.501 8        52.594    20371716.477 7  83418776.02107      3704.578 7        46.906
G04  23658184.997 7 124324612.28907      7283.580 7        43.156    23658195.671 4  96876354.71604      5675.512 4        24.594    23658194.754 6  96876352.76206      5675.395 6        41.344
G17  21979757.401 7 115504403.05407      5417.431 7        47.688    21979760.763 5  90003449.08805      4221.383 5        35.469    21979761.062 7  90003447.07807      4221.337 7        42.875
G19  23289944.252 7 122389502.44007      6874.299 7        42.125    23289946.836 4  95368440.18604      5356.589 4        25.750
G21  21812485.351 6 114625382.71506      1609.134 6        39.563    21812488.642 3  89318491.87803      1253.889 3        22.938
G28  24323403.800 4                      5380.543 4        25.500                                                                    24323409.823 4                      4191.495 4        26.875
G32  24026073.624 6 126257869.71106       761.615 6        40.219    24026081.274 4  98382786.29104       593.387 4        29.344    24026081.775 5  98382976.17505       594.267 5        32.281
R01  20496228.906 7 109564084.86107      6798.845 7        45.938    20496237.986 6  85216562.17506      5287.786 6        40.906
R07  22126312.152 7 118443890.92807      -208.906 7        44.438    22126319.395 6  92123052.03106      -162.315 6        40.531
R08  19313644.016 8 103423687.89808      2721.889 8        49.688    19313649.150 7  80440668.14907      2116.740 7        46.563
R15  23727965.151 6 126795216.03506      1793.120 6        38.875    23727976.783 6  98618636.07506      1394.908 6        41.063
R16  23768102.868 5                      4798.406 5        35.250    23768119.359 4  98750563.30704      3732.379 4        27.875
R17  24265669.080 5 129850504.56805      7776.048 5        34.563    24265680.385 6 100994874.14706      6048.412 6        37.250
R22  23169960.797 7 123682830.55107      -276.354 7        42.063    23169973.221 6  96197794.24206      -214.858 6        41.594
R23  19360037.111 7 103563141.57107      2364.190 7        45.875
R24  20086725.896 8 107412751.95308      6200.943 8        50.719    20086732.718 7  83543281.57607      4823.084 7        44.750
S23  38758668.796 7 203678165.44607      3550.505 7        43.563
S36  38168334.182 7 200575956.74607      3554.763 7        45.250
> 2023 06 09 15 29 22.0000000  0 37
C06  39148977.017 4                      3992.835 4        29.719    39148981.223 5                      3087.456 5        34.938
C09  39008496.337 4                      4573.219 4        29.000    39008507.728 4                      3536.339 4        25.344
C16  39298292.831 5                      3820.252 5        31.625    39298302.625 5                      2955.096 5        32.594
C20  23676663.556 7 123290604.88307      6414.958 7        46.875
C27  24312759.207 7 126602910.83907       418.556 7        46.281
C29  23323758.898 8 121452938.19708      5865.250 8        48.406
C30  21661166.156 8 112795372.17208      2683.799 8        52.656
C32  21684963.858 8 112919296.78708      3591.667 8        51.094
E02  27285847.491 4 143388157.08804      2379.051 4        27.906    27285859.834 5 109868850.61905      1824.672 5        31.438
E04  24266802.228 8 127522911.05408      5385.787 8        48.438    24266809.228 7  97712384.89007      4126.623 7        46.406
E10  23574043.472 7 123882430.57207      2755.359 7        46.656    23574050.539 7  94922931.39907      2111.033 7        44.750
E11  22603304.589 7 118781165.35607      4178.997 7        46.125    22603308.097 7  91014155.98507      3202.200 7        44.813
E12  24900991.503 5 130855587.90505      1676.228 5        33.219    24900998.275 5 100265992.64905      1284.633 5        34.406
E19  25724957.419 5 135185563.07905      2203.452 5        32.531    25724964.258 4                      1689.372 4        27.875
E30  28482644.127 5 149677314.19305      4664.003 5        30.313    28482655.559 6 114687849.44506      3572.936 6        37.781
E36  26158745.449 7 137465136.04707      6004.465 7        42.469    26158756.089 7 105330477.95607      4600.669 7        42.313
G01  20047104.669 8 105348244.92108      2567.584 8        49.406    20047110.335 8  82089562.20308      2000.714 8        49.906    20047110.487 7  82089566.20707      2000.605 7        44.563
G02  21212160.320 7 111470650.58207      2201.108 7        44.906    21212161.532 5  86860256.41805      1715.151 5        30.656
G03  20370805.514 8 107049309.59008      4753.279 8        49.906    20370811.260 8  83415067.91708      3703.855 8        52.625    20370811.997 7  83415071.90707      3703.877 7        47.438
G04  23656799.080 6 124317328.96206      7282.735 6        41.875    23656809.597 4  96870679.41604      5674.836 4        25.063    23656808.564 6  96870677.42606      5675.316 6        40.625
G14                                                                                                                                  24425535.440 3                       709.034 3        21.438
G17  21978726.472 7 115498986.05607      5416.488 7        46.875    21978729.973 5  89999228.04905      4220.643 5        35.656    21978730.304 6  89999226.03506      4220.675 6        41.031
G19  23288635.981 7 122382628.44307      6873.618 7        42.469    23288638.775 4  95363083.83504      5356.057 4        25.719
G21  21812178.817 6 114623772.90906      1609.454 6        40.125    21812182.251 3  89317237.47003      1254.110 3        22.406
G28  24322379.409 4                      5379.812 4        26.219
G32  24025928.739 6 126257108.47506       761.194 6        40.375    24025936.380 4  98382193.10304       593.182 4        28.969    24025935.924 5  98382383.16105       592.843 5        32.406
R01  20494956.944 7 109557286.07507      6798.586 7        46.188    20494966.619 6  85211274.25506      5287.519 6        41.344
R07  22126351.154 7 118444100.38807      -210.213 7        44.688    22126358.822 6  92123214.96806      -162.007 6        39.938
R08  19313135.561 8 103420966.30408      2721.103 8        49.719    19313140.887 7  80438551.34507      2116.504 7        46.063
R15  23727629.810 6 126793423.33006      1791.949 6        39.344    23727641.295 6  98617241.73406      1393.884 6        41.281
R16  23767204.460 5                      4798.140 5        33.469    23767220.956 5  98746832.76605      3729.741 5        32.438
R17  24264215.570 6 129842728.67706      7775.716 6        36.406    24264226.970 5 100988826.16105      6047.679 5        33.656
R22  23170012.573 7 123683106.41007      -275.896 7        42.063    23170024.806 6  96198008.85006      -214.954 6        40.469
R23  19359595.239 7 103560777.36107      2363.836 7        45.719
R24  20085566.248 8 107406551.26108      6200.318 8        50.250    20085573.137 7  83538458.84007      4822.227 7        44.813
S23  38757990.656 7 203674614.80707      3550.923 7        42.500
S36  38167659.575 7 200572401.57307      3554.963 7        45.469
> 2023 06 09 15 29 23.0000000  0 37
C06  39148208.497 4                      3992.911 4        24.094    39148215.031 5                      3087.267 5        32.156
C09  39007618.463 4                      4571.579 4        27.344
C16  39297558.734 5                      3819.018 5        34.094    39297568.904 4                      2953.303 4        28.719
C20  23675431.554 7 123284190.02407      6414.491 7        47.594
C27  24312678.991 7 126602492.55507       417.445 7        46.156
C29  23322632.331 7 121447072.84707      5865.017 7        47.156
C30  21660650.861 8 112792688.81008      2682.701 8        52.531
C32  21684274.195 8 112915705.64208      3590.489 8        50.813
E02                                                                  27285406.396 4 109867025.98604      1824.488 4        29.344
E04  24265777.454 8 127517525.71608      5384.624 8        48.438    24265784.485 7  97708258.46207      4125.961 7        46.438
E10  23573519.285 7 123879675.85507      2754.223 7        46.844    23573526.208 7  94920820.61207      2110.322 7        44.563
E11  22602509.422 7 118776986.40207      4178.439 7        46.188    22602512.937 7  91010953.92707      3201.785 7        44.875
E12  24900672.795 5 130853912.54305      1674.939 5        33.063    24900679.241 5 100264708.88605      1283.637 5        33.438
E19  25724538.441 5 135183358.73605      2203.514 5        34.688    25724544.490 4                      1690.406 4        28.188
E30  28481756.852 5 149672651.16005      4662.732 5        35.563    28481768.063 6 114684276.39606      3572.613 6        38.219
E36  26157602.919 6 137459131.47206      6004.552 6        41.781    26157613.547 7 105325877.00607      4600.912 7        42.531
G01  20046616.186 8 105345677.77808      2566.470 8        49.406    20046621.839 8  82087561.83208      1999.847 8        49.906    20046622.157 7  82087565.85407      1999.669 7        44.156
G02  21211741.595 7 111468449.80807      2200.522 7        45.156    21211742.713 5  86858541.53205      1714.693 5        30.594
G03  20369901.111 8 107044556.59608      4752.480 8        50.219    20369906.803 8  83411364.28608      3703.225 8        52.688    20369907.562 7  83411368.30507      3703.148 7        47.156
G04  23655413.092 6 124310045.94306      7281.963 6        41.000    23655423.575 4  96865004.35604      5674.214 4        25.375    23655422.729 6  96865002.40006      5674.858 6        40.438
G14                                                                                                                                  24425362.114 3                       707.352 3        21.563
G17  21977695.697 7 115493569.60507      5416.144 7        47.375    21977699.270 5  89995007.43705      4220.365 5        35.625    21977699.656 7  89995005.41907      4220.310 7        42.000
G19  23287327.987 7 122375754.77707      6873.343 7        42.531    23287330.807 4  95357727.73004      5355.858 4        25.875
G21  21811872.759 6 114622163.78106      1608.457 6        41.063    21811876.005 3  89315983.60603      1253.348 3        22.438
G28  24321355.618 4                      5378.034 4        27.594
G32  24025784.041 6 126256347.84306       760.584 6        41.344    24025791.564 4  98381600.41504       592.649 4        29.094    24025791.298 5  98381790.41905       591.377 5        32.344
R01  20493684.948 7 109550488.06707      6797.549 7        46.063    20493695.036 6  85205986.90206      5286.867 6        41.719
R07  22126390.441 7 118444310.25207      -210.156 7        43.781    22126397.680 6  92123378.18906      -163.561 6        37.750
R08  19312627.333 8 103418245.72108      2719.988 8        49.563    19312632.643 7  80436435.32807      2115.328 7        45.750
R15  23727294.591 6 126791631.37106      1791.293 6        38.719    23727306.178 6  98615847.96106      1393.316 6        40.469
R16  23766307.634 5 126955384.27805      4795.209 5        30.344    23766322.634 5  98743102.76705      3728.832 5        33.406
R17  24262762.557 6 129834952.54606      7776.792 6        37.844    24262774.200 5 100982778.07605      6048.227 5        33.719
R22  23170064.670 6 123683382.95906      -277.507 6        41.250    23170077.007 6  96198223.86306      -215.408 6        40.938
R23  19359153.576 7 103558414.11407      2362.775 7        46.063
R24  20084406.623 8 107400351.17408      6199.682 8        50.219    20084413.375 7  83533636.53507      4822.061 7        44.156
S23  38757315.378 7 203671064.60907      3549.431 7        43.625
S36  38166981.814 7 200568846.60307      3554.851 7        45.406
> 2023 06 09 15 29 24.0000000  0 37
C06  39147441.950 4                      3991.138 4        25.625    39147448.013 5                      3086.640 5        34.531
C09  39006740.335 3                      4571.263 3        22.313
C16  39296824.620 4                      3817.990 4        29.219    39296835.566 5                      2952.965 5        32.344
C20  23674199.949 7 123277776.47907      6413.769 7        47.688
C27  24312598.890 7 126602075.55907       417.166 7        46.719
C29  23321506.144 8 121441208.84908      5864.042 8        48.781
C30  21660135.828 8 112790006.96908      2681.797 8        52.438
C32  21683584.784 8 112912115.96108      3589.516 8        51.219
E02                                                                  27284953.603 4 109865202.46804      1824.909 4        27.531
E04  24264752.878 8 127512141.80908      5383.842 8        48.438    24264759.994 7  97704133.09307      4125.529 7        46.938
E10  23572995.308 7 123876922.35207      2753.504 7        46.844    23573002.133 7  94918710.78307      2110.017 7        44.781
E11  22601714.406 7 118772808.74107      4177.651 7        46.000    22601717.952 7  91007752.86307      3201.056 7        44.844
E12  24900354.297 5 130852238.30405      1673.870 5        34.219    24900360.501 5 100263426.07905      1282.781 5        33.969
E19  25724119.068 5 135181155.82005      2202.949 5        35.719    25724125.226 4                      1687.733 4        27.875
E30  28480869.654 6 149667989.54006      4661.610 6        36.031    28480881.126 6 114680704.52706      3571.573 6        40.719
E36  26156460.152 6 137453127.99506      6003.624 6        41.688    26156471.163 7 105321276.94607      4600.080 7        42.219
G01  20046127.925 8 105343112.10408      2565.705 8        49.531    20046133.626 8  82085562.60308      1999.251 8        49.844    20046133.778 7  82085566.61207      1998.972 7        44.313
G02  21211323.138 7 111466250.41207      2199.301 7        44.906    21211324.148 5  86856827.70905      1713.744 5        30.656
G03  20368997.027 8 107039805.11908      4751.485 8        50.281    20369002.630 8  83407661.83708      3702.456 8        52.625    20369003.213 7  83407665.84707      3702.321 7        47.031
G04  23654027.400 6 124302764.16806      7282.055 6        40.750    23654037.832 4  96859330.28204      5674.304 4        25.344    23654037.028 6  96859328.30706      5674.283 6        41.906
G14                                                                                                                                  24425190.922 3                       708.867 3        23.719
G17  21976665.221 7 115488154.65007      5415.038 7        46.844    21976668.833 5  89990787.98905      4219.510 5        35.625    21976669.155 6  89990786.03906      4219.324 6        41.906
G19  23286020.147 6 122368882.50006      6872.083 6        41.969    23286023.067 4  95352372.73104      5354.876 4        25.313
G21  21811566.647 6 114620555.86606      1607.910 6        40.406    21811570.018 3  89314730.67103      1252.922 3        22.031
G28  24320331.732 3                      5378.316 3        21.938
G32  24025639.341 6 126255588.53606       758.968 6        40.563    24025647.077 4  98381008.73604       591.436 4        29.063    24025646.627 5  98381198.76105       591.519 5        33.250
R01  20492413.658 7 109543691.68107      6796.160 7        45.750    20492423.392 6  85200700.80706      5286.257 6        41.781
R07  22126430.344 7 118444521.33707      -210.595 7        45.500    22126437.221 6  92123542.39806      -163.734 6        38.813
R08  19312119.448 8 103415526.94408      2718.673 8        49.719    19312125.065 7  80434320.72407      2114.512 7        46.375
R15  23726960.106 6 126789841.14806      1789.591 6        39.906    23726971.005 6  98614455.50206      1392.439 6        41.000
R16  23765411.127 5                      4794.754 5        35.688    23765423.667 4  98739373.79904      3729.906 4        28.750
R17  24261310.061 6 129827177.50006      7775.737 6        37.875    24261320.759 5 100976730.84705      6047.340 5        33.969
R22  23170116.612 6 123683660.66606      -277.650 6        40.875    23170128.822 7  96198439.85907      -215.666 7        42.063
R23  19358711.861 7 103556052.58207      2361.412 7        46.031
R24  20083247.529 8 107394152.63208      6198.397 8        50.781    20083253.944 7  83528815.44807      4820.814 7        45.063
S23  38756640.081 7 203667515.40707      3549.725 7        43.844
S36  38166307.192 7 200565292.55507      3554.351 7        44.969
> 2023 06 09 15 29 25.0000000  0 37
C06  39146674.615 4                      3990.715 4        27.625    39146681.888 5                      3086.473 5        33.313
C09  39005861.684 5                      4570.545 5        31.250
C16  39296092.113 6                      3819.050 6        36.375    39296101.863 5                      2951.951 5        33.625
C20  23672968.573 7 123271363.44807      6412.146 7        46.938
C27  24312518.866 7 126601659.09807       415.187 7        45.125
C29  23320380.131 8 121435345.43508      5862.842 8        48.156
C30  21659621.031 8 112787325.90608      2680.168 8        52.469
C32  21682895.616 8 112908527.11208      3587.903 8        51.000
E02  27284491.990 3                      2376.114 3        20.031    27284501.235 5 109863379.75005      1821.748 5        31.719
E04  24263728.458 8 127506758.59608      5382.282 8        48.438    24263735.587 7  97700008.32107      4124.104 7        46.031
E10  23572471.509 7 123874169.56307      2752.148 7        47.000    23572478.263 7  94916601.49707      2108.741 7        44.719
E11  22600919.622 7 118768631.63907      4176.555 7        45.969    22600923.103 7  91004552.23707      3200.315 7        44.563
E12  24900035.698 5 130850564.74405      1673.183 5        31.500    24900041.661 5 100262143.73805      1282.214 5        33.219
E19  25723699.914 6 135178953.77706      2201.457 6        37.250    25723705.809 5                      1685.085 5        32.625
E30  28479982.622 5 149663328.76005      4660.139 5        33.563    28479994.420 6 114677133.22406      3570.973 6        37.156
E36  26155317.575 6 137447124.82406      6002.806 6        40.125    26155328.612 6 105316677.08306      4599.583 6        40.219
G01  20045640.030 8 105340547.32408      2563.927 8        49.781    20045645.579 8  82083564.07408      1997.872 8        49.781    20045645.655 7  82083568.08207      1997.978 7        44.500
G02  21210904.742 7 111464051.80607      2197.761 7        45.094    21210905.739 5  86855114.50705      1712.557 5        30.688
G03  20368093.068 8 107035054.39708      4750.002 8        50.281    20368098.590 8  83403959.97908      3701.302 8        52.625    20368099.198 7  83403963.99407      3701.082 7        46.938
G04  23652641.598 6 124295482.76206      7280.315 6        40.438    23652652.173 4  96853656.47704      5672.960 4        24.969    23652651.449 6  96853654.48006      5673.035 6        39.938
G14                                                                                                                                  24425017.630 3                       709.094 3        22.219
G17  21975634.851 7 115482740.48807      5413.668 7        47.281    21975638.553 5  89986569.16305      4218.453 5        35.594    21975638.732 6  89986567.12506      4218.712 6        41.500
G19  23284712.275 7 122362010.87007      6871.254 7        42.594    23284715.472 4  95347018.21104      5354.221 4        25.219
G21  21811260.945 6 114618948.71706      1606.470 6        40.656    21811264.218 3  89313478.34603      1251.805 3        22.063
G28  24319309.694 4                      5375.521 4        26.563
G32  24025494.906 6 126254830.05406       758.252 6        40.781    24025502.696 4  98380417.71704       590.893 4        29.656    24025501.730 5  98380607.67905       590.890 5        35.031
R01  20491142.628 7 109536896.11907      6794.506 7        46.719    20491152.146 6  85195415.39006      5284.690 6        41.250
R07  22126469.897 7 118444733.22607      -212.574 7        43.000    22126477.056 6  92123707.13506      -164.799 6        39.375
R08  19311611.838 8 103412809.34308      2716.629 8        49.844    19311617.589 7  80432207.05407      2112.727 7        46.000
R15  23726625.090 6 126788051.91306      1789.042 6        37.469    23726636.382 6  98613063.82406      1391.495 6        41.188
R16  23764513.711 5                      4789.592 5        30.219    23764525.006 5                      3726.576 5        30.875
R17  24259857.003 6 129819402.64006      7774.759 6        37.656    24259867.804 5 100970683.61505      6047.669 5        35.438
R22  23170168.740 6 123683939.07106      -279.676 6        40.656    23170181.040 6  96198656.39106      -217.011 6        39.219
R23  19358270.422 7 103553692.09007      2359.773 7        45.656
R24  20082088.439 8 107387954.84208      6197.169 8        50.500    20082095.328 7  83523994.96507      4820.219 7        44.563
S23  38755966.965 6 203663966.60506      3547.706 6        41.875
S36  38165631.297 7 200561738.69407      3552.928 7        45.875
> 2023 06 09 15 29 26.0000000  0 37
C06  39145907.222 3                      3990.078 3        23.656    39145915.521 5                      3084.815 5        34.094
C09  39004985.791 4                      4569.693 4        28.125    39005006.716 4                      3534.655 4        29.781
C16  39295358.124 5                      3817.947 5        34.438    39295368.967 5                      2952.622 5        34.063
C20  23671737.013 7 123264950.99307      6412.090 7        47.594
C27  24312438.871 7 126601243.20107       415.646 7        46.125
C29  23319254.173 8 121429482.54908      5862.632 8        48.063
C30  21659106.258 8 112784645.67708      2679.938 8        52.313
C32  21682206.535 8 112904939.03208      3588.058 8        50.875
E02  27284040.899 3                      2376.288 3        21.125    27284049.572 4 109861557.30304      1822.768 4        28.031
E04  24262704.207 8 127501376.13108      5382.337 8        48.750    24262711.428 7  97695884.12307      4123.929 7        46.469
E10  23571947.751 7 123871417.31907      2752.184 7        47.125    23571954.581 7  94914492.67407      2108.518 7        44.750
E11  22600124.888 7 118764455.10107      4176.422 7        46.406    22600128.259 7  91001352.04107      3199.978 7        44.469
E12  24899717.348 5 130848891.75905      1673.084 5        31.719    24899722.885 5 100260861.80605      1282.140 5        33.375
E19  25723280.843 6 135176752.37506      2201.418 6        39.313    25723286.953 5                      1686.041 5        33.469
E30  28479096.224 5 149658668.69905      4659.705 5        31.250    28479107.812 5 114673562.53205      3569.696 5        34.375
E36  26154174.969 6 137441121.97506      6002.705 6        39.875    26154186.253 6 105312077.52506      4599.744 6        40.313
G01  20045152.132 8 105337983.28708      2563.762 8        49.969    20045157.668 8  82081566.12108      1997.735 8        49.938    20045157.626 7  82081570.13607      1997.757 7        44.250
G02  21210486.461 7 111461853.82207      2197.936 7        45.188    21210487.472 5  86853401.79005      1712.677 5        30.656
G03  20367189.091 8 107030304.49008      4749.479 8        50.375    20367194.703 8  83400258.75508      3700.895 8        52.563    20367195.265 7  83400262.73507      3701.104 7        46.875
G04  23651256.095 7 124288201.91407      7280.400 7        42.281    23651266.612 4  96847983.09004      5673.050 4        25.188    23651266.021 6  96847981.19306      5672.909 6        38.656
G14                                                                                                                                  24424842.484 3                       708.286 3        22.656
G17  21974604.704 7 115477327.05507      5413.157 7        47.563    21974608.414 5  89982350.90005      4218.046 5        35.594    21974608.681 7  89982348.91407      4218.034 7        42.031
G19  23283404.627 6 122355139.78006      6870.762 6        41.750    23283407.972 4  95341664.11004      5353.839 4        25.313
G21  21810955.411 6 114617342.03506      1607.050 6        40.781    21810958.528 3  89312226.38803      1252.228 3        22.125
G28  24318287.016 4                      5374.325 4        25.188
G32  24025350.671 7 126254072.10507       757.795 7        42.563    24025358.407 5  98379827.08305       590.497 5        30.063    24025357.691 6  98380017.02106       590.698 6        36.125
R01  20489871.596 7 109530101.49307      6794.413 7        46.563    20489880.738 7  85190130.65907      5284.510 7        42.094
R07  22126509.667 7 118444945.55007      -211.753 7        44.500    22126517.453 6  92123872.31206      -165.269 6        38.625
R08  19311104.440 8 103410092.78008      2716.310 8        50.063    19311110.418 7  80430094.16107      2112.739 7        46.719
R15  23726290.245 6 126786263.55106      1788.084 6        38.969    23726301.548 6  98611672.95306      1390.390 6        41.375
R16  23763615.842 6                      4791.816 6        36.313    23763627.091 5                      3725.701 5        32.344
R17  24258404.129 6 129811627.97006      7774.389 6        37.469    24258415.457 6 100964636.71806      6047.163 6        36.219
R22  23170221.010 6 123684218.05706      -279.663 6        39.906    23170233.040 6  96198873.34706      -216.722 6        40.281
R23  19357829.201 7 103551332.62007      2359.132 7        45.875
R24  20080929.679 8 107381757.81508      6196.844 8        50.906    20080936.477 7  83519175.03307      4819.872 7        45.063
S23  38755291.958 7 203660418.13907      3548.378 7        42.125
S36  38164954.858 7 200558185.15507      3553.354 7        45.469
> 2023 06 09 15 29 27.0000000  0 37
C06  39145143.281 5                      3989.485 5        30.875    39145149.746 6                      3085.313 6        37.938
C09  39004108.423 4                      4569.491 4        27.563    39004128.064 4                      3533.556 4        26.156
C16  39294624.207 5 204617427.89815      3818.103 5        34.750    39294636.008 6 158223226.13316      2952.857 6        37.375
C20  23670505.849 7 123258539.52407      6410.533 7        46.938
C27  24312359.353 7 126600828.04107       415.322 7        47.094
C29  23318128.413 8 121423620.54708      5861.345 8        48.531
C30  21658591.725 8 112781966.49108      2678.952 8        52.594
C32  21681517.734 8 112901351.92408      3586.856 8        51.094
E02  27283590.293 3                      2376.729 3        22.219
E04  24261680.051 8 127495994.59008      5381.855 8        48.719    24261687.499 7  97691760.60007      4123.408 7        47.000
E10  23571424.217 7 123868665.77807      2751.676 7        47.594    23571431.001 7  94912384.33707      2108.301 7        45.094
E11  22599330.268 7 118760279.31407      4175.250 7        46.344    22599333.472 7  90998152.40307      3199.440 7        44.438
E12  24899398.607 5 130847219.23005      1672.446 5        33.469    24899404.633 5 100259580.29605      1281.337 5        33.719
E19  25722861.906 6 135174551.62206      2200.863 6        40.313    25722868.401 5 103575330.00815      1686.378 5        34.375
E30  28478209.546 4 149654009.15404      4658.787 4        28.188    28478221.133 5 114669992.37205      3570.074 5        34.250
E36  26153032.952 6 137435119.77306      6001.502 6        40.781    26153044.167 6 105307478.46506      4598.551 6        40.844
G01  20044664.392 8 105335420.15508      2562.840 8        49.688    20044669.926 8  82079568.87708      1997.019 8        50.031    20044669.841 7  82079572.87807      1996.955 7        44.406
G02  21210068.367 7 111459656.60707      2197.100 7        45.313    21210069.340 5  86851689.67305      1712.027 5        30.813
G03  20366285.454 8 107025555.62508      4748.192 8        50.281    20366291.025 8  83396558.34108      3699.887 8        52.656    20366291.640 7  83396562.32307      3700.032 7        46.906
G04  23649870.753 7 124280921.90607      7279.712 7        42.281    23649881.251 4  96842310.38104      5672.511 4        24.875    23649880.797 6  96842308.42406      5672.174 6        38.156
G14                                                                                                                                  24424670.720 3                       711.126 3        19.250
G17  21973574.814 7 115471914.64507      5411.634 7        47.500    21973578.484 5  89978133.44005      4216.850 5        35.531    21973578.819 6  89978131.46706      4216.695 6        41.750
G19  23282097.454 6 122348269.53206      6869.570 6        41.594    23282100.654 4  95336310.67704      5352.905 4        25.000
G21  21810649.845 6 114615736.09606      1605.634 6        40.219    21810652.991 3  89310975.01303      1251.145 3        22.313
G28  24317263.202 3                      5375.976 3        22.969
G32  24025206.583 6 126253314.83406       757.483 6        39.531    24025214.261 5  98379236.99605       590.229 5        30.375    24025213.736 5  98379426.82105       591.056 5        34.156
R01  20488600.680 7 109523308.11207      6792.749 7        45.938    20488610.035 7  85184846.95207      5283.119 7        42.094
R07  22126549.278 7 118445158.48607      -213.054 7        42.563    22126557.115 5  92124038.01505      -165.766 5        35.031
R08  19310597.336 8 103407377.44108      2715.090 8        49.750    19310603.393 7  80427982.22007      2111.827 7        46.438
R15  23725955.604 6 126784476.43206      1785.528 6        38.750    23725967.020 6  98610282.99006      1388.912 6        41.625
R16  23762718.897 5                      4790.357 5        35.469    23762732.873 4                      3723.975 4        26.250
R17  24256951.417 6 129803853.81206      7772.997 6        37.188    24256963.056 6 100958590.16306      6045.583 6        36.188
R22  23170273.184 6 123684497.65606      -279.414 6        40.438    23170285.502 6  96199090.85206      -217.347 6        40.469
R23  19357388.337 7 103548974.26207      2357.825 7        45.781
R24  20079771.073 8 107375561.69808      6195.494 8        51.031    20079777.903 7  83514355.83707      4818.583 7        45.469
S23  38754616.916 7 203656870.05007      3548.586 7        43.094
S36  38164278.953 7 200554632.23507      3552.486 7        45.719
> 2023 06 09 15 29 28.0000000  0 37
C06  39144377.609 5                      3988.773 5        30.531    39144383.714 5                      3084.683 5        35.750
C09  39003230.465 4                      4568.863 4        29.375    39003248.192 3                      3533.114 3        22.656
C16  39293891.458 5 204613611.08905      3816.990 5        33.531    39293903.492 6 158220274.86606      2951.261 6        37.813
C20  23669274.584 7 123252128.79307      6411.061 7        46.469
C27  24312279.668 7 126600413.68407       415.051 7        46.375
C29  23317002.824 8 121417759.50408      5861.250 8        48.438
C30  21658077.456 8 112779288.40508      2678.318 8        52.563
C32  21680829.046 8 112897765.95208      3586.312 8        51.219
E02  27283137.814 4                      2376.019 4        24.594    27283140.694 4                      1821.734 4        24.750
E04  24260656.205 8 127490614.05408      5381.158 8        49.125    24260663.577 7  97687637.83107      4123.216 7        46.656
E10  23570900.676 7 123865915.24207      2751.077 7        47.219    23570907.647 7  94910276.76407      2107.808 7        44.875
E11  22598535.850 7 118756104.45807      4175.127 7        46.344    22598538.988 7  90994953.49307      3199.014 7        44.594
E12  24899080.437 5 130845547.65405      1673.924 5        33.000    24899086.646 5 100258299.44305      1281.986 5        33.969
E19  25722443.355 6 135172352.14206      2199.812 6        40.813    25722450.081 5 103573644.67905      1685.372 5        35.156
E30                                                                  28477335.194 5 114666422.94805      3570.064 5        30.875
E36  26151891.087 6 137429118.18706      6001.836 6        40.125    26151902.131 6 105302879.88606      4598.376 6        40.969
G01  20044176.802 8 105332858.20708      2562.219 8        49.594    20044182.417 8  82077572.55208      1996.537 8        50.063    20044182.463 7  82077576.55407      1996.473 7        44.281
G02  21209650.549 7 111457460.48007      2196.841 7        45.563    21209651.403 5  86849978.40805      1711.825 5        30.906
G03  20365381.979 8 107020807.83408      4747.777 8        50.125    20365387.546 8  83392858.76208      3699.565 8        52.656    20365388.126 7  83392862.77607      3699.365 7        46.594
G04  23648485.648 6 124273642.53706      7280.112 6        40.531    23648495.994 4  96836638.15604      5672.788 4        24.438    23648495.625 6  96836636.12206      5672.966 6        39.563
G14                                                                                                                                  24424496.926 3                       707.705 3        20.500
G17  21972545.337 7 115466503.40507      5411.261 7        47.219    21972548.766 5  89973916.89205      4216.568 5        35.781    21972549.116 7  89973914.90207      4216.271 7        42.250
G19  23280789.967 7 122341400.29007      6869.054 7        42.125    23280793.554 4  95330958.02004      5352.505 4        24.969
G21  21810344.334 6 114614131.04106      1605.544 6        40.344    21810347.595 3  89309724.31803      1251.079 3        22.438
G28  24316240.466 4                      5371.843 4        28.313                                                                    24316226.899 3                      4188.884 3        21.938
G32  24025062.810 6 126252558.63506       756.840 6        39.500    24025070.281 4  98378647.73904       589.720 4        29.625    24025069.741 5  98378837.67605       590.571 5        31.094
R01  20487330.243 7 109516515.81807      6792.448 7        46.063    20487339.050 6  85179564.07706      5282.880 6        41.969
R07  22126589.121 7 118445372.55407      -213.316 7        43.594    22126596.998 6  92124204.44606      -166.378 6        38.469
R08  19310090.545 8 103404663.61008      2714.210 8        49.750    19310096.606 7  80425871.47807      2110.870 7        46.625
R15  23725621.485 6 126782690.69106      1785.685 6        39.281    23725632.689 6  98608894.00506      1389.245 6        41.094
R16  23761822.516 5                      4790.131 5        35.313    23761836.267 5                      3725.005 5        32.188
R17  24255498.071 5 129796080.11905      7774.260 5        35.844    24255510.290 5 100952544.00905      6046.033 5        35.500
R22  23170326.028 6 123684778.12506      -279.607 6        41.719    23170337.851 6  96199309.00606      -217.804 6        41.031
R23  19356947.862 7 103546617.27507      2357.577 7        46.125
R24  20078612.647 8 107369366.72508      6194.986 8        50.781    20078619.203 7  83509537.52007      4818.362 7        44.250
S23  38753942.033 7 203653322.72807      3548.076 7        42.781
S36  38163601.639 7 200551079.94907      3552.801 7        45.344
> 2023 06 09 15 29 29.0000000  0 37
C06  39143610.641 4                      3988.015 4        29.906    39143617.733 6                      3084.080 6        36.969
C09  39002352.117 5                      4568.057 5        30.188    39002370.225 4                      3533.464 4        28.438
C16  39293158.328 6 204609794.82006      3814.912 6        36.094    39293170.732 5 158217323.80005      2950.221 5        34.438
C20  23668043.546 7 123245718.74307      6410.213 7        47.594
C27  24312200.226 7 126599999.84507       414.266 7        46.219
C29  23315877.268 8 121411899.31208      5860.042 8        48.500
C30  21657563.275 8 112776611.24408      2677.133 8        52.500
C32  21680140.635 8 112894180.88508      3585.082 8        51.375
E02  27282684.249 4                      2374.724 4        27.469    27282690.617 4                      1819.259 4        24.719
E04  24259632.590 8 127485234.24008      5380.068 8        49.094    24259639.693 7  97683515.65207      4122.367 7        46.688
E10  23570377.237 7 123863165.37607      2749.993 7        47.375    23570384.366 7  94908169.73707      2106.831 7        44.719
E11  22597741.541 7 118751930.35107      4173.978 7        46.469    22597744.693 7  90991755.13807      3198.343 7        44.563
E12  24898762.798 5 130843876.81505      1671.619 5        32.281    24898768.901 5 100257019.20705      1280.798 5        34.219
E19  25722025.035 6 135170153.44306      2198.546 6        40.563    25722031.854 5 103571959.97405      1684.182 5        34.500
E30  28476436.290 4 149644693.66804      4657.160 4        28.531    28476448.492 5 114662854.38805      3566.408 5        31.844
E36  26150749.513 6 137423117.33906      6000.577 6        38.563    26150760.337 6 105298281.78706      4597.709 6        40.438
G01  20043689.461 8 105330297.13808      2560.856 8        49.969    20043695.077 8  82075576.91208      1995.483 8        50.094    20043694.998 7  82075580.89907      1995.712 7        44.438
G02  21209232.776 7 111455265.13307      2195.149 7        45.344    21209233.624 5  86848267.74905      1710.515 5        31.031
G03  20364478.779 8 107016060.98408      4746.716 8        50.156    20364484.248 8  83389159.92308      3698.741 8        52.688    20364484.880 7  83389163.92707      3698.840 7        47.281
G04  23647100.585 6 124266363.68306      7279.206 6        40.063    23647110.815 4  96830966.32204      5672.103 4        24.313    23647110.418 6  96830964.34106      5672.010 6        39.406
G14                                                                                                                                  24424321.281 3                       705.234 3        22.188
G17  21971515.884 7 115461093.15907      5409.979 7        47.719    21971519.241 5  89969701.12205      4215.556 5        35.719    21971519.338 7  89969699.15107      4215.489 7        42.281
G19  23279482.917 7 122334531.95807      6868.168 7        42.031    23279486.531 4  95325606.07904      5351.810 4        25.000
G21  21810039.174 6 114612526.74206      1604.428 6        40.469    21810042.326 3  89308474.20603      1250.210 3        22.406
G28  24315218.951 4                      5370.376 4        25.906
G32  24024919.159 6 126251803.26806       754.934 6        38.375    24024926.470 4  98378059.14204       588.255 4        28.656    24024926.722 5  98378249.24905       588.330 5        34.000
R01  20486059.594 7 109509724.52507      6791.204 7        45.688    20486068.764 7  85174281.94107      5281.971 7        42.188
R07  22126629.416 7 118445587.34707      -215.043 7        44.500    22126637.130 6  92124371.36206      -166.868 6        40.000
R08  19309584.210 8 103401950.98408      2712.542 8        49.938    19309589.970 7  80423761.65307      2109.387 7        46.625
R15  23725287.456 6 126780906.22806      1783.233 6        38.563    23725298.433 6  98607506.03506      1387.601 6        39.688
R16  23760926.680 5 126926635.43805      4788.644 5        35.438    23760938.282 5  98720743.36205      3724.170 5        34.844
R17  24254045.410 5 129788306.99405      7772.889 5        35.375    24254056.898 6 100946498.24106      6045.534 6        36.469
R22  23170378.545 6 123685059.18606      -280.879 6        41.500    23170390.379 6  96199527.57306      -218.313 6        40.531
R23  19356507.507 7 103544261.40607      2355.704 7        46.313
R24  20077454.270 8 107363172.77908      6193.763 8        50.406    20077460.749 7  83504720.04507      4817.064 7        45.219
S23  38753265.896 7 203649775.60207      3547.773 7        43.063
S36  38162925.929 7 200547528.12607      3552.183 7        45.063
> 2023 06 09 15 29 30.0000000  0 37
C06  39142845.278 5                      3987.212 5        32.813    39142852.124 5                      3081.653 5        34.656
C09  39001475.388 4                      4567.345 4        26.250    39001491.511 4                      3532.746 4        25.188
C16  39292425.655 5 204605979.17405      3813.998 5        33.281    39292438.013 5 158214373.39005      2948.500 5        35.438
C20  23666812.533 7 123239309.12907      6408.852 7        46.406
C27  24312120.848 7 126599586.23307       412.802 7        46.281
C29  23314751.929 7 121406039.89307      5858.278 7        47.563
C30  21657049.358 8 112773934.80408      2675.153 8        52.563
C32  21679452.221 8 112890596.54108      3583.044 8        50.750
E02  27282230.343 4                      2373.799 4        26.594    27282239.367 4                      1818.344 4        26.406
E04  24258608.916 8 127479854.94208      5378.016 8        48.469    24258616.188 7  97679393.83007      4120.992 7        46.906
E10  23569854.094 7 123860416.00407      2748.414 7        46.625    23569861.264 7  94906063.07607      2105.732 7        44.438
E11  22596947.314 7 118747756.87907      4172.381 7        46.094    22596950.536 7  90988557.29907      3197.071 7        44.500
E12  24898444.570 5 130842206.06105      1668.943 5        34.125    24898451.090 5 100255739.02505      1279.011 5        33.875
E19  25721606.820 6 135167955.46106      2196.513 6        39.375    25721613.491 5 103570275.76105      1682.639 5        32.563
E30  28475549.847 5 149640037.35105      4656.509 5        30.469    28475561.973 4 114659286.63704      3566.497 4        28.906
E36  26149608.094 6 137417117.05706      5999.254 6        36.594    26149618.565 6 105293684.15906      4596.736 6        38.906
G01  20043202.164 8 105327736.81408      2559.034 8        49.281    20043207.878 8  82073581.85508      1994.052 8        50.063    20043207.770 7  82073585.86307      1994.097 7        44.188
G02  21208815.202 7 111453070.28607      2193.365 7        44.938    21208815.925 5  86846557.47405      1709.116 5        30.969
G03  20363575.644 8 107011314.92908      4744.831 8        49.719    20363581.120 8  83385461.70208      3697.266 8        52.594    20363581.757 7  83385465.71307      3697.384 7        47.219
G04  23645715.337 6 124259084.95306      7277.581 6        41.594    23645725.669 3  96825294.58403      5670.851 3        23.906    23645724.732 6  96825292.60606      5670.672 6        37.281
G14                                                                                                                                  24424147.594 4                       705.668 4        26.844
G17  21970486.552 7 115455683.91407      5407.940 7        47.125    21970489.904 5  89965486.12805      4213.982 5        35.719    21970489.883 6  89965484.11906      4213.992 6        41.813
G19  23278176.387 7 122327664.66607      6865.502 7        42.719    23278179.739 4  95320254.95204      5349.764 4        25.125
G21  21809733.781 6 114610922.63606      1603.098 6        40.250    21809737.123 3  89307224.24803      1249.171 3        22.375
G28  24314197.046 4                      5371.081 4        26.875
G32  24024775.554 6 126251048.78706       753.134 6        37.469    24024782.867 4  98377471.24604       586.871 4        28.250    24024782.996 5  98377661.28505       586.277 5        31.531
R01  20484789.020 7 109502933.89207      6789.614 7        45.156    20484798.560 6  85169000.33506      5280.794 6        41.344
R07  22126669.520 7 118445802.82807      -217.139 7        44.688    22126677.395 6  92124539.06706      -168.744 6        38.188
R08  19309077.972 8 103399239.43908      2709.886 8        49.531    19309083.563 7  80421652.65907      2107.703 7        46.313
R15  23724953.775 6 126779123.03806      1781.898 6        37.969    23724964.980 6  98606119.16606      1385.480 6        41.406
R16  23760030.783 6 126921848.13606      4786.439 6        38.969    23760040.429 4  98717019.84004      3723.318 4        29.094
R17  24252592.793 5 129780534.34505      7771.554 5        35.094    24252603.697 6 100940452.89506      6044.164 6        36.438
R22  23170430.879 6 123685340.40606      -281.953 6        41.594    23170442.699 7  96199746.27907      -219.185 7        42.313
R23  19356067.235 7 103541906.40407      2353.529 7        45.500
R24  20076296.111 8 107356979.85908      6191.501 8        51.125    20076302.601 7  83499903.28907      4815.830 7        44.688
S23  38752589.772 7 203646228.56207      3545.976 7        42.938
S36  38162252.515 7 200543976.27607      3550.903 7        45.906
> 2023 06 09 15 29 31.0000000  0 37
C06  39142079.814 5                      3986.760 5        31.906    39142085.937 5                      3082.372 5        34.031
C09  39000598.901 4                      4567.433 4        25.156    39000614.116 3                      3532.368 3        23.594
C16  39291693.292 5 204602164.48105      3814.066 5        35.094    39291705.584 6 158211423.60506      2949.485 6        36.406
C20  23665581.631 7 123232899.99607      6408.827 7        46.375
C27  24312041.382 7 126599173.26507       412.550 7        45.656
C29  23313626.915 7 121400181.34607      5858.491 7        47.063
C30  21656535.521 8 112771259.23308      2674.939 8        52.469
C32  21678763.996 8 112887013.15108      3583.108 8        50.781
E02  27281779.362 4                      2372.640 4        28.750    27281788.149 4                      1818.788 4        25.438
E04  24257585.380 8 127474476.43008      5377.583 8        48.688    24257592.725 7  97675272.64707      4120.551 7        46.469
E10  23569331.066 7 123857667.47107      2748.147 7        46.594    23569338.143 7  94903957.02707      2106.076 7        44.531
E11  22596153.232 7 118743584.15907      4172.530 7        46.156    22596156.588 7  90985360.02107      3196.894 7        44.656
E12  24898127.082 5 130840536.26705      1669.493 5        33.031    24898133.208 5 100254459.50205      1279.492 5        32.000
E19  25721188.868 6 135165758.61506      2196.746 6        40.625    25721195.498 5 103568592.45805      1682.758 5        33.813
E30  28474663.858 5 149635382.29905      4654.953 5        30.281    28474676.027 5 114655720.04305      3565.726 5        31.938
E36  26148466.010 6 137411117.22806      5999.838 6        36.031    26148477.089 6 105289086.87406      4597.495 6        37.969
G01  20042715.209 8 105325177.49908      2558.903 8        48.969    20042720.870 8  82071587.58008      1993.948 8        49.750    20042720.606 7  82071591.58207      1993.801 7        43.563
G02  21208397.626 7 111450876.36107      2193.622 7        44.031    21208398.430 5  86844847.91905      1709.313 5        30.813
G03  20362672.666 8 107006569.74008      4745.022 8        49.969    20362678.161 8  83381764.15108      3697.419 8        52.625    20362678.662 7  83381768.14507      3697.288 7        46.969
G04  23644330.333 6 124251806.63706      7277.783 6        41.375    23644340.568 3  96819623.17503      5670.970 3        23.594    23644339.885 6  96819621.22106      5670.772 6        37.281
G14                                                                                                                                  24423974.502 3                       705.076 3        22.750
G17  21969457.290 7 115450275.61907      5407.963 7        46.844    21969460.747 5  89961271.86505      4214.006 5        35.594    21969460.686 6  89961269.85706      4213.869 6        41.844
G19  23276869.791 7 122320798.12707      6866.186 7        42.313    23276873.037 4  95314904.40104      5350.268 4        25.281
G21  21809428.823 6 114609319.51006      1602.933 6        39.750    21809432.076 3  89305975.06603      1249.018 3        21.906
G28  24313173.666 4                      5371.000 4        26.500
G32  24024631.598 6 126250295.30706       752.946 6        39.156    24024639.451 4  98376884.13704       586.700 4        27.688    24024639.877 5  98377074.12405       587.328 5        33.906
R01  20483519.003 7 109496144.10907      6789.268 7        46.125    20483528.414 6  85163719.40606      5280.332 6        41.500
R07  22126710.150 7 118446019.34407      -216.832 7        43.750    22126717.479 6  92124707.42406      -168.213 6        40.781
R08  19308572.044 8 103396529.21808      2709.639 8        49.344    19308577.442 7  80419544.72007      2107.364 7        46.063
R15  23724621.726 6 126777341.71506      1782.451 6        40.063    23724631.912 6  98604733.23406      1385.326 6        40.813
R16  23759134.312 6 126917062.03106      4785.009 6        41.719    23759143.252 5  98713297.65505      3721.467 5        35.000
R17  24251140.871 6 129772762.23006      7772.145 6        36.000    24251151.372 5 100934407.96905      6044.290 5        35.656
R22  23170483.840 6 123685622.37606      -282.278 6        40.531    23170495.933 6  96199965.60506      -219.869 6        40.750
R23  19355627.087 7 103539552.63107      2353.201 7        45.063
R24  20075138.323 8 107350787.88608      6191.719 8        50.625    20075145.006 7  83495087.32607      4815.738 7        44.563
S23  38751915.384 7 203642681.99807      3546.244 7        42.938
S36  38161577.083 7 200540424.73507      3551.017 7        46.344
> 2023 06 09 15 29 32.0000000  0 37
C06  39141314.075 5                      3986.450 5        31.781    39141320.271 5                      3083.435 5        34.313
C09  38999725.517 3                      4568.084 3        22.500    38999736.086 4                      3532.341 4        24.063
C16  39290960.719 5 204598349.87705      3814.877 5        34.313    39290973.085 5 158208473.91705      2949.925 5        34.938
C20  23664350.954 7 123226491.61507      6408.180 7        47.250
C27  24311962.308 7 126598760.88007       412.056 7        46.688
C29  23312501.932 7 121394323.24007      5857.846 7        47.125
C30  21656021.977 8 112768584.47208      2674.347 8        52.594
C32  21678076.065 8 112883430.46608      3582.313 8        51.063
E02  27281327.947 4                      2372.062 4        24.281    27281335.424 3                      1819.596 3        23.688
E04  24256562.034 8 127469098.63508      5377.502 8        48.688    24256569.210 7  97671151.99607      4120.462 7        47.156
E10  23568808.179 7 123854919.42407      2747.775 7        46.844    23568815.374 7  94901851.38707      2105.426 7        44.813
E11  22595359.316 7 118739411.89907      4171.878 7        46.156    22595362.588 7  90982163.09407      3196.786 7        44.563
E12  24897809.729 6 130838866.85306      1668.608 6        36.469    24897815.708 5 100253180.43305      1278.446 5        34.500
E19  25720771.200 6 135163562.19306      2195.719 6        38.875    25720777.030 4 103566909.49804      1682.274 4        29.094
E30  28473778.236 5 149630727.76105      4653.736 5        34.844    28473790.294 5 114652153.16405      3565.735 5        33.531
E36  26147324.330 6 137405117.70006      5999.289 6        38.406    26147335.426 6 105284489.82306      4597.158 6        36.156
G01  20042228.417 8 105322618.85508      2558.220 8        49.281    20042233.979 8  82069593.83008      1993.419 8        49.813    20042233.590 7  82069597.82907      1993.477 7        44.438
G02  21207980.188 7 111448683.01807      2192.783 7        44.563    21207981.054 5  86843138.82005      1708.663 5        30.719
G03  20361769.764 8 107001825.35708      4744.045 8        50.250    20361775.330 8  83378067.22708      3696.661 8        52.531    20361775.853 7  83378071.22007      3696.685 7        46.813
G04  23642945.270 6 124244529.00306      7277.261 6        40.438    23642955.548 3  96813952.30403      5670.593 3        23.344    23642955.193 6  96813950.30506      5670.937 6        38.469
G14                                                                                                                                  24423802.555 4                       704.350 4        24.813
G17  21968428.199 7 115444867.99607      5407.265 7        46.688    21968431.695 5  89957058.13205      4213.449 5        35.563    21968431.908 7  89957056.13407      4213.732 7        42.344
G19  23275563.268 6 122313932.05006      6866.347 6        41.094    23275566.394 4  95309554.20404      5350.410 4        25.469
G21  21809123.811 6 114607716.84006      1602.413 6        41.875    21809127.132 3  89304726.24503      1248.637 3        22.031
G28  24312153.434 3                      5369.992 3        22.469
G32  24024488.255 6 126249542.19906       753.776 6        37.688    24024496.175 4  98376297.32804       587.328 4        27.719    24024496.107 5  98376487.29905       586.809 5        35.844
R01  20482249.178 7 109489355.33107      6788.604 7        46.000    20482258.621 7  85158439.23507      5279.816 7        42.063
R07  22126750.428 6 118446236.16506      -218.001 6        39.969    22126758.180 6  92124876.14406      -168.452 6        37.688
R08  19308066.063 8 103393819.96608      2708.729 8        49.375    19308071.505 7  80417437.51807      2106.768 7        45.938
R15  23724288.096 6 126775560.57606      1780.839 6        39.844    23724298.571 6  98603347.94206      1384.859 6        40.938
R16  23758237.686 6 126912277.17906      4783.838 6        41.938    23758247.206 6  98709576.22606      3720.460 6        36.844
R17  24249688.389 6 129764990.24106      7772.048 6        36.031    24249699.119 6 100928362.98606      6044.541 6        36.188
R22  23170536.689 6 123685904.86706      -282.528 6        41.281    23170548.992 6  96200185.34506      -219.936 6        41.563
R23  19355187.241 7 103537199.78407      2352.416 7        45.656
R24  20073980.483 8 107344596.53208      6191.167 8        50.500    20073987.166 7  83490271.82907      4815.251 7        44.594
S23  38751240.305 7 203639135.67507      3546.301 7        43.875
S36  38160902.459 7 200536873.66907      3551.125 7        45.188
> 2023 06 09 15 29 33.0000000  0 38
C06  39140548.656 5 203815103.92615      3985.854 5        31.531    39140555.228 6 157602793.92716      3081.947 6        36.656
C09                                                                  38998858.284 3                      3529.377 3        21.938
C16  39290228.395 5 204594535.92805      3813.717 5        32.563    39290240.244 6 158205524.70906      2949.663 6        37.188
C20  23663120.508 7 123220083.75707      6407.242 7        47.313
C27  24311883.250 7 126598349.14607       411.345 7        46.344
C29  23311377.046 7 121388465.62007      5856.910 7        47.656
C30  21655508.537 8 112765910.55208      2673.366 8        52.156
C32  21677388.188 8 112879848.64208      3581.449 8        50.813
E02  27280874.896 3                      2371.073 3        22.438    27280883.929 4                      1817.400 4        25.938
E04  24255538.799 8 127463721.63908      5376.656 8        48.688    24255546.014 7  97667031.98307      4119.736 7        47.156
E09                                                                  27387308.703 6 110277343.57716      5206.324 6        36.156
E10  23568285.478 7 123852172.04507      2747.031 7        46.500    23568292.606 7  94899746.27007      2104.859 7        45.000
E11  22594565.380 7 118735240.18307      4171.188 7        46.031    22594568.611 7  90978966.56207      3196.040 7        44.344
E12  24897492.515 5 130837198.12005      1668.209 5        34.813    24897498.170 5 100251901.76705      1278.090 5        33.563
E19  25720353.132 6 135161366.64906      2195.124 6        39.344    25720359.346 5 103565227.18705      1681.840 5        31.688
E30  28472893.285 6 149626073.76606      4654.118 6        36.063    28472904.797 6 114648587.24206      3565.476 6        40.156
E36  26146182.532 6 137399118.27506      5998.669 6        38.969    26146193.753 6 105279892.98306      4596.356 6        37.094
G01  20041741.681 8 105320061.07108      2557.347 8        49.063    20041747.253 8  82067600.75108      1992.736 8        49.688    20041746.928 7  82067604.72807      1992.909 7        44.250
G02  21207562.867 7 111446490.42707      2192.695 7        44.281    21207563.788 5  86841430.30605      1708.598 5        30.531
G03  20360867.124 8 106997081.70708      4743.062 8        50.375    20360872.647 8  83374370.87608      3695.885 8        52.594    20360873.202 7  83374374.87407      3695.930 7        46.781
G04  23641560.423 6 124237251.87506      7276.938 6        41.656    23641570.708 3  96808281.81203      5670.366 3        23.094    23641570.308 6  96808279.77906      5669.783 6        37.875
G14                                                                                                                                  24423630.120 3                       702.858 3        23.000
G17  21967399.321 7 115439461.00707      5406.130 7        47.219    21967402.777 5  89952844.89205      4212.571 5        35.594    21967402.853 6  89952842.87706      4212.622 6        41.750
G19  23274256.800 6 122307066.51506      6864.910 6        41.594    23274259.939 4  95304204.42004      5349.297 4        25.406
G21  21808819.191 6 114606114.84806      1602.001 6        40.563    21808822.271 3  89303477.92903      1248.320 3        22.000
G28  24311132.791 4                      5369.943 4        25.531                                                                    24311106.860 3                      4184.121 3        23.281
G32  24024345.306 6 126248789.83806       752.424 6        39.063    24024352.956 4  98375711.04804       586.327 4        28.094    24024352.819 5  98375901.11405       585.318 5        32.406
R01  20480979.434 7 109482567.41507      6787.285 7        45.813    20480988.851 6  85153159.76206      5278.964 6        41.156
R07  22126791.087 6 118446453.59906      -216.285 6        39.938    22126798.212 6  92125045.21106      -169.037 6        36.938
R08  19307560.364 8 103391111.85108      2707.634 8        49.406    19307565.924 7  80415331.18407      2105.852 7        46.063
R15  23723954.927 6 126773779.72906      1779.596 6        38.719    23723965.493 6  98601963.19506      1384.236 6        39.594
R16  23757341.332 7 126907493.42907      4782.764 7        44.813    23757350.858 6  98705855.49406      3720.334 6        39.281
R17  24248236.197 5 129757218.34805      7771.255 5        34.875    24248247.304 6 100922318.13106      6044.545 6        36.000
R22  23170589.628 6 123686188.15606      -283.645 6        40.281    23170601.775 6  96200405.67306      -220.719 6        41.750
R23  19354747.524 7 103534848.01107      2351.265 7        45.438
R24  20072822.879 8 107338405.91208      6189.969 8        51.188    20072829.369 7  83485456.90507      4814.485 7        44.906
S23  38750567.331 7 203635589.88207      3545.729 7        43.438
S36  38160224.605 7 200533322.95907      3550.366 7        44.781
> 2023 06 09 15 29 34.0000000  0 38
C06  39139783.572 5 203811118.46205      3985.776 5        32.063    39139790.073 6 157599712.27806      3082.264 6        36.125
C09  38997972.995 4                      4564.808 4        27.844    38997981.654 3                      3531.454 3        21.688
C16  39289496.263 5 204590722.68605      3813.512 5        34.156    39289507.780 5 158202576.07905      2948.690 5        35.844
C20  23661890.053 7 123213676.59907      6406.871 7        46.656
C27  24311804.211 7 126597938.11507       410.919 7        46.031
C29  23310252.163 7 121382608.72007      5856.625 7        46.688
C30  21654995.132 8 112763237.56908      2672.628 8        52.125
C32  21676700.482 8 112876267.77308      3580.728 8        50.531
E02  27280423.562 4                      2370.912 4        26.469    27280433.462 4                      1815.596 4        25.594
E04  24254515.634 8 127458345.54008      5375.867 8        48.625    24254523.026 7  97662912.62007      4119.156 7        46.813
E09                                                                  27386015.455 5 110272137.49205      5206.978 5        32.688
E10  23567762.714 7 123849425.42907      2746.455 7        46.594    23567769.925 7  94897641.70807      2104.442 7        44.688
E11  22593771.701 7 118731069.14507      4170.651 7        46.313    22593774.856 7  90975770.56807      3195.805 7        44.281
E12  24897175.099 5 130835530.16005      1668.175 5        34.938    24897181.007 5 100250623.71205      1278.095 5        33.750
E19  25719935.364 6 135159172.00906      2194.472 6        39.844    25719941.451 5 103563545.58205      1681.426 5        32.438
E30  28472008.021 5 149621420.82005      4651.294 5        32.969    28472019.202 6 114645021.81706      3565.094 6        37.594
E36  26145041.137 6 137393119.41306      5998.418 6        40.250    26145051.715 6 105275296.36906      4596.389 6        37.969
G01  20041255.061 8 105317504.20708      2556.423 8        49.000    20041260.709 8  82065608.38908      1992.016 8        49.656    20041260.532 7  82065612.39807      1991.883 7        44.281
G02  21207145.585 7 111444298.78107      2191.710 7        44.438    21207146.709 5  86839722.52605      1707.833 5        30.500
G03  20359964.524 8 106992338.95308      4742.509 8        50.188    20359970.131 8  83370675.22408      3695.464 8        52.594    20359970.639 7  83370679.21807      3695.435 7        46.906
G04  23640175.761 6 124229975.30906      7276.889 6        41.375    23640186.020 3  96802611.75103      5670.302 3        23.344    23640185.366 6  96802609.79806      5670.025 6        37.500
G14                                                                                                                                  24423457.560 4                       703.091 4        24.063
G17  21966370.604 7 115434054.96407      5405.596 7        47.125    21966374.052 5  89948632.39305      4212.154 5        35.656    21966374.043 6  89948630.39606      4211.963 6        41.906
G19  23272950.369 7 122300201.66807      6864.555 7        42.313    23272953.650 4  95298855.18404      5349.021 4        25.500
G21  21808514.067 6 114604513.77406      1600.602 6        39.500    21808517.551 3  89302230.33103      1247.230 3        22.219
G28  24310111.030 4                      5369.831 4        24.219                                                                    24310085.957 3                      4182.897 3        22.938
G32  24024202.138 6 126248038.28606       751.712 6        37.656    24024209.888 4  98375125.42804       585.736 4        27.875    24024210.591 5  98375315.32705       584.902 5        33.063
R01  20479709.917 7 109475780.55107      6786.706 7        46.125    20479719.033 6  85147881.07806      5278.432 6        41.813
R07  22126832.310 5 118446671.86805      -218.812 5        35.500    22126840.024 5  92125214.89205      -170.454 5        32.875
R08  19307054.833 8 103388404.98108      2706.338 8        49.531    19307060.480 7  80413225.85407      2105.073 7        46.219
R15  23723621.701 6 126772000.49306      1778.870 6        38.750    23723632.267 6  98600579.44206      1382.958 6        40.094
R16  23756445.953 7 126902710.81207      4782.410 7        44.281    23756455.432 6  98702135.67406      3719.886 6        38.375
R17  24246783.698 5 129749446.61205      7771.052 5        33.688    24246794.971 5 100916273.52105      6044.400 5        35.344
R22  23170642.680 6 123686472.15506      -284.456 6        40.531    23170655.139 6  96200626.50806      -221.120 6        41.344
R23  19354308.211 7 103532497.45207      2350.211 7        45.125
R24  20071665.074 8 107332216.17108      6189.243 8        50.313    20071671.935 7  83480642.65807      4814.019 7        45.188
S23  38749892.890 7 203632044.63407      3545.413 7        43.156
S36  38159548.280 7 200529772.64307      3550.108 7        45.219
> 2023 06 09 15 29 35.0000000  0 38
C06  39139017.664 5 203807133.10705      3984.745 5        33.531    39139024.445 6 157596630.48206      3080.637 6        36.750
C09  38997095.980 4                      4565.148 4        25.500    38997105.207 4                      3530.997 4        24.344
C16  39288764.246 5 204586909.15905      3812.871 5        33.594    39288775.793 6 158199627.34906      2948.132 6        38.000
C20  23660659.801 7 123207269.78207      6406.038 7        47.531
C27  24311725.457 7 126597527.30307       409.844 7        46.219
C29  23309127.663 7 121376752.00507      5855.749 7        47.031
C30  21654481.869 8 112760565.01508      2671.567 8        52.375
C32  21676012.928 8 112872687.24008      3579.640 8        50.719
E02  27279972.089 4                      2370.861 4        28.656    27279982.213 4                      1815.301 4        25.594
E04  24253492.678 8 127452969.77108      5374.714 8        48.719    24253500.069 7  97658793.54707      4118.168 7        47.125
E09                                                                  27384722.778 6 110266931.50306      5205.461 6        37.125
E10  23567240.051 7 123846678.92307      2745.621 7        46.656    23567247.280 7  94895537.25107      2103.763 7        44.594
E11  22592977.998 7 118726898.22507      4170.242 7        46.344    22592981.221 7  90972574.69007      3195.270 7        44.656
E12  24896857.534 5 130833862.22805      1667.432 5        34.813    24896863.661 5 100249345.71605      1276.898 5        33.031
E19  25719517.795 6 135156977.47206      2193.764 6        38.688    25719523.768 5 103561864.01405      1680.819 5        31.625
E30  28471122.537 5 149616767.57605      4650.546 5        31.313    28471133.936 6 114641456.47406      3564.654 6        37.438
E36  26143899.353 6 137387120.47906      5998.233 6        39.781    26143910.099 6 105270699.74706      4596.263 6        38.219
G01  20040768.643 8 105314947.69908      2555.306 8        49.219    20040774.240 8  82063616.30708      1991.143 8        49.688    20040774.078 7  82063620.28407      1991.414 7        43.875
G02  21206728.482 7 111442107.27907      2190.808 7        44.625    21206729.667 5  86838014.86505      1707.123 5        30.375
G03  20359062.168 8 106987596.58908      4741.683 8        50.250    20359067.681 8  83366979.87408      3694.810 8        52.656    20359068.204 7  83366983.90007      3694.682 7        46.813
G04  23638790.999 6 124222699.03906      7275.573 6        40.781    23638801.381 3  96796941.95303      5669.276 3        23.250    23638800.396 6  96796939.95806      5669.331 6        38.531
G14                                                                                                                                  24423288.081 4                       704.316 4        24.500
G17  21965341.830 7 115428649.22007      5404.701 7        46.906    21965345.355 5  89944420.12505      4211.449 5        35.594    21965345.144 7  89944418.11307      4211.482 7        42.000
G19  23271644.076 7 122293337.00407      6864.156 7        42.500    23271647.373 4  95293506.10104      5348.676 4        25.719
G21  21808209.372 6 114602912.65006      1600.218 6        40.625    21808212.877 3  89300982.70003      1246.921 3        22.125
G28                                                                                                                                  24309062.443 3                      4183.370 3        22.094
G32  24024058.986 5 126247286.84805       750.691 5        35.281    24024066.871 4  98374539.87404       584.938 4        26.750    24024068.299 4  98374729.75804       586.563 4        27.281
R01  20478440.779 7 109468994.27407      6785.320 7        46.250    20478449.468 7  85142602.84307      5277.524 7        42.188
R07  22126873.384 5 118446889.71005      -220.417 5        31.875    22126880.476 4                      -169.684 4        26.750
R08  19306549.421 8 103385698.68108      2705.209 8        49.531    19306555.234 7  80411120.95407      2103.935 7        46.406
R15  23723288.613 6 126770221.79106      1777.998 6        39.969    23723299.600 6  98599195.93506      1382.961 6        40.969
R16  23755550.106 7 126897928.70707      4780.983 7        44.531    23755560.082 6  98698416.23806      3718.739 6        38.688
R17  24245331.090 5 129741674.71105      7771.851 5        32.625    24245343.081 6 100910228.74406      6043.794 6        36.125
R22  23170695.838 6 123686756.33206      -285.347 6        40.969    23170708.607 6  96200847.49206      -222.041 6        40.375
R23  19353868.977 7 103530147.40107      2349.087 7        45.625
R24  20070507.613 8 107326026.68508      6188.557 8        50.406    20070514.711 7  83475828.62407      4813.624 7        44.281
S23  38749218.556 7 203628499.30407      3544.445 7        43.594
S36  38158870.422 7 200526222.12607      3549.599 7        45.094
> 2023 06 09 15 29 36.0000000  0 38
C06  39138252.211 5 203803148.58105      3985.339 5        31.156    39138259.330 5 157593549.41505      3081.687 5        35.344
C09  38996219.949 4                      4564.446 4        27.125    38996228.219 4                      3530.122 4        25.969
C16  39288031.748 5 204583096.92105      3811.865 5        34.469    39288043.415 6 158196679.19306      2948.510 6        38.250
C20  23659429.643 7 123200863.82307      6405.995 7        45.719
C27  24311646.696 7 126597117.33207       410.155 7        46.000
C29  23308003.219 7 121370896.25007      5855.663 7        47.969
C30  21653968.810 8 112757893.61808      2671.324 8        52.469
C32  21675325.490 8 112869107.86108      3579.368 8        50.469
E02  27279521.501 3                      2369.503 3        23.531    27279531.988 4                      1815.554 4        24.094
E04  24252469.922 8 127447595.02208      5374.889 8        48.469    24252477.266 7  97654675.21807      4118.497 7        46.625
E09                                                                  27383430.123 6 110261726.15706      5205.503 6        38.125
E10  23566717.422 7 123843933.38407      2745.711 7        45.688    23566724.784 7  94893433.52407      2103.730 7        44.500
E11  22592184.468 7 118722728.29607      4170.070 7        46.125    22592187.689 7  90969379.54107      3195.136 7        44.500
E12  24896540.249 5 130832195.17705      1667.464 5        33.938    24896546.505 5 100248068.28705      1277.616 5        32.625
E19  25719100.587 6 135154783.98006      2193.734 6        39.188    25719106.550 5 103560183.32505      1681.127 5        33.313
E30  28470236.896 4 149612115.52904      4648.997 4        28.750    28470248.569 5 114637892.03905      3563.715 5        35.281
E36  26142757.740 6 137381122.33706      5998.083 6        39.063    26142768.592 6 105266103.78906      4595.716 6        39.656
G01  20040282.366 8 105312392.30808      2555.640 8        48.813    20040287.983 8  82061625.09108      1991.409 8        49.406    20040287.905 7  82061629.07607      1991.451 7        43.656
G02  21206311.666 7 111439916.87207      2190.799 7        44.406    21206312.864 5  86836308.04905      1707.121 5        30.219
G03  20358159.904 8 106982855.42608      4740.870 8        50.094    20358165.462 8  83363285.46308      3694.187 8        52.625    20358165.696 7  83363289.46607      3694.267 7        46.406
G04  23637406.627 6 124215423.50106      7275.911 6        40.000    23637416.857 3  96791272.70703      5669.531 3        23.094    23637416.080 6  96791270.72006      5669.197 6        39.000
G14                                                                                                                                  24423116.304 3                       702.136 3        23.844
G17  21964313.394 7 115423244.65107      5404.167 7        46.969    21964316.895 5  89940208.76705      4211.044 5        35.531    21964316.861 6  89940206.75606      4211.056 6        41.250
G19  23270338.020 7 122286473.40607      6862.995 7        43.406    23270341.339 4  95288157.84404      5347.777 4        26.219
G21  21807904.994 6 114601312.49906      1600.641 6        40.313    21807908.342 3  89299735.82403      1247.255 3        22.125
G28                                                                                                                                  24308040.266 3                      4179.900 3        22.781
G32  24023916.103 5 126246536.15405       750.184 5        30.313    24023924.122 4  98373954.93404       584.544 4        24.844    24023927.739 4  98374145.25204       585.253 4        27.969
R01  20477171.557 7 109462209.23007      6785.088 7        46.188    20477180.377 7  85137325.61707      5277.294 7        42.000
R07  22126916.278 5                      -219.804 5        30.531    22126923.798 3                      -170.903 3        22.719
R08  19306044.378 8 103382993.81708      2704.666 8        49.313    19306049.945 7  80409017.18307      2103.750 7        45.688
R15  23722956.049 6 126768444.42206      1776.828 6        41.375    23722967.339 6  98597813.59506      1382.128 6        40.719
R16  23754655.202 7 126893148.07807      4780.903 7        43.469    23754665.304 6  98694698.02706      3717.764 6        40.563
R17  24243878.107 5 129733903.47605      7770.928 5        33.625    24243890.535 5 100904184.38505      6044.354 5        35.188
R22  23170749.281 6 123687041.28306      -284.770 6        39.063    23170761.853 6  96201069.19606      -221.674 6        40.438
R23  19353430.101 7 103527798.75207      2348.628 7        45.000
R24  20069350.449 8 107319838.42608      6188.057 8        50.219    20069357.540 7  83471015.54507      4812.800 7        45.000
S23  38748543.756 7 203624954.59007      3545.185 7        43.031
S36  38158195.530 7 200522672.36807      3549.960 7        46.156
> 2023 06 09 15 29 37.0000000  0 38
C06  39137487.313 5 203799164.28805      3983.940 5        31.344    39137493.742 6 157590468.47406      3080.475 6        36.156
C09  38995342.898 4                      4565.014 4        25.719    38995350.971 4                      3529.526 4        26.281
C16  39287299.316 5 204579284.44805      3810.674 5        34.406    39287311.037 5 158193731.33405      2947.188 5        34.188
C20  23658199.581 7 123194458.17407      6405.453 7        46.156
C27  24311567.963 7 126596707.28807       410.353 7        46.125
C29  23306878.825 7 121365041.13707      5854.287 7        46.844
C30  21653455.842 8 112755222.68908      2670.566 8        52.375
C32  21674638.243 8 112865528.96808      3578.550 8        50.344
E02  27279072.166 3                      2367.843 3        22.531    27279081.315 4                      1816.205 4        24.000
E04  24251447.254 8 127442220.52208      5374.475 8        48.375    24251454.515 7  97650557.08207      4118.018 7        46.594
E09                                                                  27382137.362 5 110256520.71605      5204.460 5        35.156
E10  23566195.202 7 123841188.10107      2744.983 7        45.938    23566202.620 7  94891329.99507      2103.211 7        44.406
E11  22591391.021 7 118718558.69207      4169.358 7        46.125    22591394.382 7  90966184.66407      3194.547 7        44.438
E12  24896223.072 5 130830528.21605      1666.809 5        34.969    24896228.857 5 100246791.00605      1277.740 5        32.688
E19  25718683.231 6 135152590.98806      2192.456 6        39.344    25718689.558 5 103558503.01205      1679.320 5        33.469
E30  28469352.132 5 149607464.40005      4649.929 5        33.031    28469363.570 5 114634328.16205      3562.982 5        35.188
E36  26141616.587 6 137375124.46606      5997.785 6        39.156    26141627.137 6 105261508.05506      4595.170 6        39.156
G01  20039796.182 8 105309837.40808      2554.452 8        48.563    20039801.816 8  82059634.25908      1990.490 8        49.250    20039802.010 7  82059638.25607      1990.424 7        43.906
G02  21205895.033 7 111437726.75507      2189.976 7        44.125    21205896.129 5  86834601.46505      1706.473 5        30.156
G03  20357257.804 8 106978114.80408      4739.958 8        50.438    20357263.335 8  83359591.47108      3693.474 8        52.531    20357263.636 7  83359595.46007      3693.705 7        47.250
G04  23636021.896 6 124208147.92806      7275.391 6        38.875    23636032.342 3  96785603.42703      5669.152 3        23.156    23636032.003 6  96785601.42706      5669.317 6        39.438
G14                                                                                                                                  24422944.200 4                       701.942 4        25.188
G17  21963285.024 7 115417840.87507      5402.979 7        46.406    21963288.593 5  89935998.03305      4210.114 5        35.438    21963288.503 6  89935996.00906      4210.021 6        40.969
G19  23269032.142 7 122279610.42807      6861.822 7        43.125    23269035.348 4  95282810.08204      5346.865 4        26.344
G21  21807600.599 6 114599712.50606      1600.414 6        40.719    21807603.846 3  89298489.07703      1247.075 3        22.344
G28                                                                                                                                  24307019.488 4                      4180.478 4        28.000
G32  24023774.462 4                       750.652 4        27.219                                                                    24023785.418 4  98373559.88804       584.865 4        26.594
R01  20475902.498 7 109455424.71107      6784.422 7        47.000    20475911.315 7  85132048.76707      5276.608 7        42.094
R07  22126959.403 4                      -215.667 4        27.219    22126965.330 4                      -170.193 4        24.188
R08  19305539.586 8 103380289.73108      2703.563 8        49.063    19305545.087 7  80406914.00607      2102.676 7        45.344
R15  23722623.811 7 126766668.12907      1775.513 7        43.313    23722635.120 6  98596432.01406      1381.170 6        41.125
R16  23753760.569 7 126888368.52407      4778.368 7        42.688    23753770.401 6  98690980.56506      3716.994 6        38.313
R17  24242427.129 5 129726132.45505      7770.135 5        34.938    24242438.160 5 100898140.25605      6043.384 5        34.469
R22  23170802.669 6                      -284.771 6        39.469    23170815.018 6                      -221.643 6        40.563
R23  19352991.090 7 103525450.73707      2347.609 7        44.625
R24  20068193.244 8 107313650.84508      6186.763 8        49.781    20068200.668 7  83466203.00107      4812.083 7        45.156
S23  38747867.120 7 203621409.66407      3545.159 7        43.406
S36  38157520.324 7 200519122.56507      3549.728 7        45.094
> 2023 06 09 15 29 38.0000000  0 38
C06  39136722.556 5 203795180.72505      3982.131 5        31.469    39136729.053 5 157587388.03705      3079.480 5        35.313
C09  38994465.606 4                      4563.785 4        27.469    38994472.382 4                      3528.742 4        27.531
C16  39286567.419 5 204575473.04105      3809.957 5        30.500    39286579.041 5 158190783.91105      2946.086 5        31.875
C20  23656969.561 7 123188053.44207      6403.245 7        46.656
C27  24311489.455 7 126596298.02007       408.073 7        46.594
C29  23305754.482 7 121359187.14407      5852.894 7        46.625
C30  21652943.068 8 112752552.94608      2668.362 8        52.563
C32  21673951.259 8 112861951.17208      3576.468 8        50.219
E02  27278620.666 4                      2366.307 4        24.125    27278633.625 3                      1814.318 3        23.500
E04  24250424.731 7 127436847.01307      5372.018 7        47.906    24250431.862 7  97646439.72207      4116.219 7        46.844
E09                                                                  27380844.440 5 110251315.72505      5204.047 5        33.094
E10  23565673.082 7 123838443.67707      2743.242 7        45.719    23565680.445 7  94889227.09807      2102.079 7        44.313
E11  22590597.862 7 118714390.15507      4167.303 7        45.719    22590601.156 7  90962990.56607      3193.216 7        44.188
E12  24895905.476 6 130828861.93306      1664.670 6        36.563    24895911.471 5 100245514.23905      1275.717 5        34.156
E19  25718265.951 6 135150398.93806      2190.379 6        37.375    25718272.697 4 103556823.34704      1676.704 4        28.719
E30  28468467.203 6 149602814.56006      4648.715 6        36.281    28468478.876 6 114630765.33806      3561.618 6        36.938
E36  26140475.558 6 137369127.70306      5995.272 6        38.438    26140485.796 6 105256913.06406      4594.426 6        39.563
G01  20039310.119 8 105307283.59708      2552.510 8        48.594    20039315.860 8  82057644.27408      1988.966 8        48.844    20039315.993 7  82057648.29607      1989.023 7        43.625
G02  21205478.469 7 111435537.50007      2187.779 7        43.469    21205479.567 4  86832895.54804      1704.760 4        29.656
G03  20356355.844 8 106973375.39208      4737.958 8        50.219    20356361.456 8  83355898.42008      3691.916 8        52.656    20356361.816 7  83355902.40607      3692.021 7        47.094
G04  23634637.492 6 124200873.05906      7273.596 6        39.938    23634647.959 3  96779934.68003      5667.761 3        22.469    23634647.903 6  96779932.73206      5667.048 6        36.438
G14                                                                                                                                  24422770.724 4                       700.643 4        25.500
G17  21962256.897 7 115412438.39707      5401.515 7        46.250    21962260.537 5  89931788.29905      4208.992 5        35.031    21962260.695 6  89931786.28306      4208.526 6        41.781
G19  23267726.584 7 122272748.71107      6860.480 7        42.875    23267729.669 4  95277463.29604      5345.842 4        26.406
G21  21807296.301 7 114598113.31507      1598.108 7        42.031    21807299.596 3  89297242.95503      1245.262 3        22.219
G28  24306037.529 3                      5366.312 3        22.969                                                                    24305999.802 4                      4180.527 4        26.719
G32  24023633.668 5                       748.745 5        31.781                                                                    24023643.989 4  98372975.07304       586.617 4        24.375
R01  20474633.498 7 109448641.41007      6781.807 7        46.125    20474642.407 6  85126772.86206      5274.549 6        41.625
R07  22127002.005 5                      -223.419 5        30.719    22127009.215 4                      -170.940 4        25.313
R08  19305034.975 8 103377587.12908      2701.044 8        48.875    19305040.218 7  80404811.95407      2101.099 7        45.344
R15  23722291.872 7 126764893.48207      1773.250 7        43.719    23722302.904 6  98595051.70706      1379.532 6        40.875
R16  23752865.943 6 126883590.51406      4776.634 6        37.375    23752876.598 6  98687264.47906      3715.147 6        36.094
R17  24240975.497 5 129718362.38905      7769.305 5        35.906    24240985.782 5 100892096.91005      6042.081 5        33.938
R22  23170856.975 6                      -286.860 6        41.625    23170868.306 6                      -223.489 6        40.688
R23  19352552.590 7 103523103.96507      2345.121 7        44.438
R24  20067036.518 8 107307464.55908      6184.986 8        50.313    20067043.580 7  83461391.45607      4810.583 7        45.281
S23  38747195.464 7 203617865.19407      3543.300 7        43.438
S36  38156842.284 7 200515573.25907      3548.443 7        43.688
> 2023 06 09 15 29 39.0000000  0 38
C06  39135957.640 5 203791198.28305      3982.179 5        31.000    39135964.718 5 157584308.61605      3079.924 5        33.625
C09  38993588.560 4                      4562.551 4        26.969    38993594.809 4                      3528.444 4        24.219
C16  39285836.021 4                      3809.329 4        28.750    39285848.459 4 158187837.68404      2947.810 4        27.406
C20  23655739.838 7 123181649.98407      6403.392 7        45.969
C27  24311411.106 7 126595889.92407       407.936 7        46.469
C29  23304630.612 8 121353334.42808      5852.413 8        48.156
C30  21652430.649 8 112749884.65608      2667.940 8        52.844
C32  21673264.497 8 112858374.84308      3576.048 8        49.313
E02  27278171.791 4                      2365.597 4        26.563
E04  24249402.408 7 127431474.82107      5372.086 7        47.094    24249409.455 7  97642323.38007      4116.310 7        45.750
E09                                                                  27379552.343 4 110246111.37504      5206.569 4        25.688
E10  23565150.917 7 123835700.56007      2743.212 7        44.219    23565158.525 7  94887125.24107      2101.648 7        44.188
E11  22589804.853 7 118710222.80207      4167.126 7        45.969    22589808.137 7  90959797.40707      3192.872 7        44.313
E12  24895588.920 6 130827196.93006      1664.838 6        36.906    24895594.662 5 100244238.44405      1276.507 5        34.156
E19  25717849.432 6 135148208.32506      2190.107 6        37.563    25717856.147 5 103555144.75105      1678.177 5        31.313
E30  28467582.945 5 149598166.34505      4647.693 5        34.813    28467594.067 5 114627203.60705      3561.123 5        33.438
E36  26139334.717 6 137363131.87306      5995.333 6        37.875    26139344.886 6 105252318.91906      4594.012 6        39.188
G01  20038824.345 7 105304731.27807      2552.004 7        47.438    20038830.189 8  82055655.45508      1988.581 8        48.656    20038830.285 7  82055659.44907      1988.707 7        42.969
G02  21205062.065 6 111433349.62106      2188.575 6        41.813    21205063.232 4  86831190.70804      1705.387 4        29.250
G03  20355454.310 8 106968637.45308      4737.400 8        50.906    20355459.851 8  83352206.51608      3691.486 8        52.781    20355460.432 7  83352210.50807      3691.299 7        46.906
G04  23633253.254 6 124193599.25306      7273.688 6        38.156    23633263.760 3  96774266.79103      5667.765 3        21.500    23633263.674 6  96774264.85106      5668.170 6        36.188
G14                                                                                                                                  24422600.833 4                       700.691 4        24.906
G17  21961228.850 7 115407037.41207      5400.416 7        46.969    21961232.758 5  89927579.73105      4208.118 5        35.063    21961232.928 6  89927577.69106      4208.576 6        40.781
G19  23266421.014 6 122265888.32406      6859.954 6        41.344    23266424.256 4  95272117.53304      5345.420 4        25.906
G21  21806992.182 7 114596515.37807      1597.986 7        42.094    21806995.598 3  89295997.81303      1245.190 3        22.625
G28  24305015.732 4                      5363.239 4        25.750                                                                    24304981.171 4                      4179.234 4        24.188
G32  24023492.530 5                       747.871 5        33.656
R01  20473364.508 7 109441859.67407      6781.252 7        46.219    20473373.644 6  85121498.20906      5274.101 6        41.000
R07  22127045.115 4                      -223.539 4        25.125    22127048.547 5                      -172.069 5        30.125
R08  19304530.779 8 103374886.31908      2700.428 8        48.688    19304535.764 7  80402711.38507      2100.182 7        44.688
R15  23721959.924 6 126763120.46706      1772.583 6        40.750    23721970.864 6  98593672.69706      1378.840 6        39.125
R16  23751972.640 6 126878814.53106      4774.921 6        36.375    23751982.154 5  98683549.58905      3714.796 5        32.500
R17  24239523.847 6 129710593.23206      7768.412 6        36.938    24239533.307 6 100886054.16506      6042.630 6        36.000
R22  23170910.991 6                      -286.755 6        40.750    23170921.972 6                      -223.912 6        38.344
R23  19352113.945 7 103520758.88407      2344.795 7        43.313
R24  20065880.071 8 107301279.77808      6184.332 8        50.188    20065886.976 7  83456581.05207      4809.984 7        45.531
S23  38746520.501 7 203614321.77107      3543.465 7        43.438
S36  38156168.511 7 200512024.95807      3548.555 7        44.406
> 2023 06 09 15 29 40.0000000  0 38
C06  39135193.784 4                      3982.923 4        28.781    39135201.103 4 157581229.51204      3076.302 4        27.531
C09  38992712.028 5                      4561.791 5        31.375    38992717.302 4                      3527.775 4        29.594
C16  39285105.887 4                      3807.892 4        26.813    39285117.438 4                      2944.066 4        24.000
C20  23654510.132 7 123175247.25307      6402.059 7        45.375
C27  24311332.782 7 126595482.07907       407.344 7        46.313
C29  23303507.055 8 121347482.81808      5850.896 8        48.063
C30  21651918.572 8 112747217.24708      2666.612 8        51.531
C32  21672577.797 8 112854799.27208      3574.736 8        51.719
E02  27277722.581 3                      2367.102 3        21.563    27277730.984 3                      1810.799 3        22.563
E04  24248380.286 8 127426103.17108      5370.973 8        48.125    24248387.147 7  97638207.44307      4115.420 7        45.313
E09  27378243.054 5 143873650.04015      6791.292 5        30.063    27378259.958 5 110240907.57905      5203.867 5        31.594
E10  23564629.034 7 123832957.84907      2741.733 7        45.625    23564636.535 7  94885023.66807      2101.098 7        44.031
E11  22589012.010 7 118706056.18607      4165.877 7        46.063    22589015.170 7  90956604.80007      3192.084 7        44.094
E12  24895272.121 6 130825532.08906      1664.514 6        39.875    24895277.839 6 100242962.78506      1275.323 6        40.063
E19  25717433.996 5 135146017.55905      2190.209 5        30.469    25717439.000 5 103553466.06505      1677.593 5        32.563
E30  28466698.734 5 149593518.84505      4646.814 5        31.313    28466710.111 6 114623642.73706      3560.896 6        37.844
E36  26138194.034 6 137357136.89006      5994.702 6        38.188    26138203.954 6 105247725.38406      4593.089 6        40.250
G01  20038338.883 7 105302179.61007      2550.883 7        47.688    20038344.633 8  82053667.14008      1987.700 8        48.375    20038344.652 7  82053671.14407      1987.718 7        43.281
G02  21204645.853 7 111431162.22607      2186.651 7        47.813    21204646.970 5  86829486.24205      1703.883 5        30.063
G03  20354552.886 8 106963900.48908      4736.361 8        49.844    20354558.430 8  83348515.37408      3690.668 8        52.750    20354559.044 7  83348519.38407      3690.591 7        46.906
G04  23631869.413 5 124186325.96405      7272.832 5        31.906    23631879.680 3  96768599.30703      5667.144 3        19.813    23631879.479 5  96768597.27605      5667.313 5        34.688
G14                                                                                                                                  24422431.855 4                       699.239 4        24.594
G17  21960201.521 8 115401637.66408      5399.206 8        48.125    21960205.199 5  89923372.11905      4207.196 5        35.375    21960205.497 7  89923370.07107      4207.226 7        42.156
G19  23265115.402 6 122259029.06306      6858.104 6        38.375    23265119.026 4  95266772.66404      5343.935 4        24.938
G21  21806688.075 7 114594917.78407      1597.163 7        46.875    21806691.576 4  89294752.91804      1244.563 4        25.125
G28  24303992.710 4                      5363.268 4        27.500
G32  24023351.379 5                       747.234 5        31.031                                                                    24023359.599 3                       583.084 3        23.594
R01  20472095.888 7 109435078.91307      6779.973 7        45.969    20472105.305 6  85116224.27906      5273.128 6        40.500
R07  22127086.440 5                      -222.271 5        32.219    22127089.343 5                      -173.496 5        35.531
R08  19304026.395 7 103372186.59207      2698.595 7        47.250    19304031.473 7  80400611.57807      2098.956 7        44.469
R15  23721628.434 6 126761349.09806      1770.475 6        41.406    23721639.257 6  98592294.98906      1376.991 6        39.344
R16  23751078.754 6 126874039.58206      4772.935 6        37.125
R17  24238071.713 5 129702824.79005      7768.279 5        33.844    24238081.704 6 100880012.06906      6041.080 6        36.344
R22  23170964.841 7                      -287.732 7        44.719    23170975.624 6                      -223.710 6        37.375
R23  19351675.875 8 103518414.68008      2343.397 8        48.063
R24  20064723.670 8 107295096.13608      6182.847 8        50.844    20064730.649 7  83451771.55607      4808.756 7        46.094
S23  38745846.039 7 203610778.36207      3542.514 7        43.750
S36  38155492.158 7 200508476.78407      3547.478 7        43.969
> 2023 06 09 15 29 41.0000000  0 38
C06  39134430.598 4                      3980.958 4        24.469    39134437.202 4 157578151.15504      3079.464 4        29.719
C09  38991837.025 4                      4561.732 4        24.875    38991840.452 5                      3527.368 5        30.313
C16  39284375.302 3                      3808.719 3        23.063    39284386.770 4                      2945.815 4        25.125
C20  23653280.883 7 123168845.69507      6401.888 7        45.188
C27  24311254.488 7 126595074.98407       407.223 7        46.063
C29  23302383.439 7 121341632.46807      5850.068 7        46.563
C30  21651406.627 8 112744551.08908      2665.871 8        52.281
C32  21671891.301 8 112851224.94608      3574.050 8        51.063
E02  27277272.839 3                      2364.233 3        23.156    27277279.886 3                      1811.325 3        20.875
E04  24247358.232 8 127420732.58708      5370.375 8        48.813    24247365.276 7  97634092.32207      4115.118 7        45.906
E09  27376951.522 4 143866859.17004      6791.713 4        26.188    27376967.672 5 110235704.24205      5202.926 5        32.250
E10  23564107.309 7 123830216.16607      2741.621 7        46.063    23564114.648 7  94882922.89707      2100.784 7        44.125
E11  22588219.135 7 118701890.69507      4165.288 7        45.719    22588222.519 7  90953413.04607      3191.590 7        43.281
E12  24894955.701 6 130823868.04506      1663.823 6        40.094    24894961.151 6 100241687.78606      1274.625 6        39.250
E19  25717016.954 4 135143828.49304      2188.603 4        28.844    25717022.675 4 103551788.76704      1676.049 4        29.938
E30  28465815.427 4 149588873.27904      4646.691 4        28.063    28465825.627 5 114620082.92805      3559.278 5        30.938
E36  26137053.827 6 137351143.24006      5993.799 6        37.625    26137063.254 6 105243132.66906      4592.651 6        39.688
G01  20037853.615 7 105299629.18607      2550.115 7        46.531    20037859.314 7  82051679.79507      1987.105 7        47.719    20037859.282 7  82051683.77607      1987.262 7        42.688
G02  21204229.893 8 111428975.94508      2185.876 8        48.125    21204230.909 5  86827782.64105      1703.287 5        31.125
G03  20353651.809 8 106959164.92008      4735.325 8        50.438    20353657.296 8  83344825.31508      3689.880 8        52.938    20353658.196 7  83344829.28307      3689.843 7        47.531
G04  23630486.260 4 124179053.02104      7273.478 4        28.625    23630495.814 3  96762932.12703      5667.594 3        18.094    23630495.946 5  96762930.43005      5667.188 5        35.469
G14                                                                                                                                  24422262.278 3                       695.813 3        20.938
G17  21959174.539 8 115396239.38108      5397.904 8        48.031    21959177.920 5  89919165.67305      4206.113 5        35.313    21959178.365 6  89919163.72806      4206.433 6        40.188
G19  23263810.212 6 122252171.17306      6857.880 6        40.688    23263814.003 4  95261428.85804      5343.819 4        24.594
G21  21806384.338 7 114593321.04307      1596.646 7        46.219    21806387.711 4  89293508.68704      1244.148 4        27.594
G28  24302970.823 5                      5360.215 5        31.313
G32  24023211.976 3                       745.367 3        21.188                                                                    24023216.887 3                       580.693 3        22.969
R01  20470827.500 7 109428299.56207      6779.050 7        46.000    20470836.549 6  85110951.44706      5272.641 6        41.438
R07  22127127.325 5                      -223.556 5        31.625    22127130.900 5  92126429.03115      -173.321 5        34.500
R08  19303522.577 7 103369488.43407      2697.686 7        45.781    19303527.290 7  80398512.95907      2098.474 7        43.594
R15  23721297.405 6 126759579.34006      1769.840 6        41.313    23721308.181 6  98590918.51706      1374.955 6        39.250
R16  23750185.606 5                      4771.691 5        34.594    23750191.756 4                      3712.135 4        29.500
R17  24236620.129 5 129695057.39205      7767.575 5        34.531    24236630.164 5 100873970.71305      6041.863 5        35.938
R22  23171018.620 7 123688473.77407      -287.636 7        44.813    23171029.972 6  96202183.20606      -223.372 6        40.063
R23  19351237.764 7 103516071.95107      2342.245 7        47.844
R24  20063567.645 8 107288913.94008      6181.854 8        50.250    20063574.120 7  83446963.10007      4808.114 7        46.688
S23  38745170.404 7 203607235.51707      3543.042 7        43.438
S36  38154816.192 7 200504929.35007      3547.370 7        43.625
> 2023 06 09 15 29 42.0000000  0 38
C06  39133667.219 3                      3980.635 3        23.531    39133673.727 3                      3077.856 3        22.563
C09  38990960.824 4                      4561.150 4        28.281    38990964.198 3                      3526.006 3        22.094
C16  39283644.948 3                      3811.750 3        19.688    39283658.160 3                      2945.330 3        19.656
C20  23652051.457 7 123162444.31807      6401.034 7        43.281
C27  24311176.253 7 126594667.93407       406.251 7        45.188
C29  23301260.026 7 121335783.08007      5848.879 7        45.000
C30  21650894.706 8 112741885.50908      2664.793 8        52.375
C32  21671204.994 8 112847651.30508      3572.939 8        49.875
E02  27276823.061 3                      2362.104 3        20.906    27276830.421 4                      1810.262 4        24.813
E04  24246336.283 8 127415362.32208      5369.564 8        48.344    24246343.490 7  97629977.45207      4114.336 7        46.063
E09                                                                  27375675.274 5 110230500.86005      5203.784 5        33.188
E10  23563585.713 7 123827475.00107      2740.521 7        45.656    23563592.975 7  94880822.53307      2099.802 7        44.406
E11  22587426.759 7 118697725.83507      4164.058 7        45.438    22587429.834 7  90950221.76307      3190.824 7        42.500
E12  24894639.192 6 130822204.38506      1662.661 6        40.813    24894644.649 6 100240412.93206      1274.230 6        40.688
E19  25716600.143 5 135141640.37905      2186.865 5        32.344    25716606.165 4 103550112.08204      1676.455 4        29.750
E30                                                                  28464941.885 5 114616523.94605      3557.909 5        32.844
E36  26135913.317 6 137345149.87506      5992.944 6        39.031    26135922.759 6 105238540.42106      4591.639 6        38.969
G01  20037368.424 7 105297079.56107      2548.820 7        46.719    20037374.144 7  82049693.06907      1986.100 7        47.656    20037374.143 7  82049697.04207      1985.973 7        42.844
G02  21203813.907 8 111426790.10908      2185.061 8        48.844    21203814.954 5  86826079.37805      1702.658 5        33.094
G03  20352750.793 8 106954430.00608      4734.078 8        51.094    20352756.285 8  83341135.75908      3688.906 8        52.938    20352757.024 7  83341139.71307      3688.964 7        47.438
G04  23629102.622 4                      7272.941 4        25.906                                                                    23629112.067 6  96757263.37406      5667.168 6        36.281
G14                                                                                                                                  24422093.648 3                       699.807 3        22.469
G17  21958147.465 7 115390842.14907      5396.786 7        44.625    21958150.880 5  89914960.07205      4205.250 5        34.906    21958151.296 7  89914958.04907      4204.925 7        42.219
G19  23262505.198 6 122245314.33106      6855.816 6        40.875    23262509.173 4  95256085.83804      5342.207 4        24.219
G21  21806080.747 7 114591724.69707      1595.596 7        46.844    21806083.926 4  89292264.77604      1243.334 4        29.469
G28  24301949.648 5                      5360.293 5        32.156
G32                                                                                                                                  24023077.990 3                       580.810 3        22.125
R01  20469559.292 7 109421520.66807      6778.305 7        46.063    20469568.279 6  85105678.96306      5272.052 6        40.906
R07  22127166.704 5                      -225.855 5        30.156    22127171.732 4  92126603.16904      -174.964 4        26.281
R08  19303018.882 7 103366791.39307      2696.027 7        46.281    19303023.523 7  80396415.28707      2096.626 7        43.594
R15  23720966.381 7 126757810.96707      1767.008 7        42.500    23720976.919 6  98589543.10406      1375.020 6        38.906
R16  23749294.368 5                      4769.217 5        34.438    23749299.735 4                      3710.865 4        27.063
R17  24235169.140 5 129687290.59205      7766.679 5        35.750    24235179.960 5 100867930.49605      6040.865 5        32.063
R22  23171072.633 7 123688761.63407      -288.741 7        42.688    23171084.166 6  96202407.14206      -224.487 6        39.188
R23  19350799.898 7 103513730.00507      2341.012 7        47.656
R24  20062411.801 8 107282732.67408      6180.498 8        52.281    20062417.895 7  83442155.42707      4806.896 7        47.625
S23  38744495.338 7 203603692.48707      3542.897 7        42.063
S36  38154139.981 7 200501381.70507      3547.426 7        44.813
> 2023 06 09 15 29 43.0000000  0 38
C05  40310090.485 6 209905222.07516      3492.241 6        37.438    40310099.713 5 162312067.15415      2699.843 5        32.531
C06  39132903.529 4                      3978.748 4        28.531    39132910.202 3                      3077.612 3        23.219
C09  38990084.100 5                      4559.020 5        34.719    38990088.272 6                      3525.897 6        36.406
C16  39282914.888 3                      3808.921 3        22.906    39282928.489 4                      2944.394 4        25.125
C20  23650822.075 7 123156043.33707      6400.022 7        45.156
C27  24311098.155 7 126594261.20207       406.194 7        45.406
C29  23300137.143 7 121329934.94207      5846.319 7        46.875
C30  21650383.058 8 112739220.94008      2663.447 8        51.531
C32  21670518.886 8 112844078.76708      3571.516 8        52.063
E02  27276374.503 3                      2362.614 3        19.250    27276380.835 4                      1809.444 4        27.156
E04  24245314.574 7 127409992.74707      5368.909 7        47.438    24245321.737 7  97625863.02907      4114.007 7        46.594
E09  27374366.463 4                      6790.636 4        26.500    27374383.171 5 110225297.38405      5203.167 5        35.844
E10  23563064.223 8 123824734.76408      2739.365 8        49.906    23563071.429 7  94878722.81907      2098.888 7        47.469
E11  22586634.372 7 118693562.09007      4162.388 7        44.813    22586637.461 7  90947031.34607      3189.479 7        42.719
E12  24894322.469 7 130820541.45507      1662.405 7        43.688    24894328.404 6 100239138.75906      1273.841 6        41.500
E19  25716183.621 5 135139453.39805      2186.066 5        35.219    25716189.783 5 103548436.27805      1674.540 5        33.594
E30  28464051.695 4 149579585.72104      4640.187 4        28.000    28464058.657 4 114612966.56304      3555.736 4        29.313
E36  26134772.868 6 137339157.69206      5990.292 6        39.031    26134782.435 6 105233949.02106      4589.864 6        38.688
G01  20036883.517 8 105294530.97108      2547.322 8        50.594    20036889.164 8  82047707.14708      1984.938 8        48.125    20036889.113 7  82047711.12307      1984.852 7        44.844
G02  21203398.099 8 111424605.27208      2183.972 8        49.344    21203399.194 5  86824376.89605      1701.803 5        34.656
G03  20351849.885 8 106949696.20208      4732.450 8        50.906    20351855.466 8  83337447.06308      3687.634 8        52.969    20351856.120 7  83337451.04607      3687.583 7        47.000
G04  23627718.775 5 124164507.33405      7271.777 5        35.594    23627728.300 2  96751597.40812      5666.106 2        13.688    23627728.140 6  96751596.44106      5667.107 6        36.625
G14                                                                                                                                  24421923.458 3                       698.690 3        22.219
G17  21957120.834 7 115385446.38807      5393.765 7        47.219    21957124.093 5  89910755.56305      4202.959 5        34.906    21957124.413 7  89910753.49407      4202.917 7        43.281
G19  23261200.704 6 122238458.93306      6853.212 6        39.313    23261204.634 3  95250743.96103      5340.129 3        23.219
G21  21805777.054 8 114590129.08908      1594.962 8        48.781    21805780.295 5  89291021.43205      1242.829 5        30.750
G28  24300927.658 5                      5358.774 5        30.344
R01  20468291.319 7 109414742.56907      6776.979 7        46.063    20468299.892 6  85100407.06906      5271.310 6        39.781
R07  22127209.786 4 118448699.22714      -225.017 4        27.469    22127214.251 4  92126777.91704      -175.784 4        26.125
R08  19302515.553 7 103364095.79007      2694.122 7        46.719    19302520.446 7  80394318.69907      2095.351 7        44.813
R15  23720635.619 6 126756044.76706      1763.604 6        38.969    23720645.982 6  98588169.33406      1371.282 6        39.188
R16  23748403.150 4 126859725.71804      4769.395 4        29.125    23748407.870 3                      3709.469 3        23.094
R17  24233718.145 5 129679525.16805      7762.002 5        31.219    24233728.822 5 100861891.09305      6038.651 5        30.906
R22  23171126.299 7 123689049.92607      -288.594 7        44.281    23171137.757 6  96202631.33706      -224.487 6        37.938
R23  19350362.462 8 103511389.38908      2339.721 8        49.656
R24  20061256.042 8 107276552.96908      6177.891 8        51.719    20061262.370 7  83437348.98107      4805.128 7        46.875
S23  38743822.394 7 203600149.63707      3542.478 7        43.063
S36  38153463.792 7 200497834.17307      3547.338 7        45.594
> 2023 06 09 15 29 44.0000000  0 38
C05  40309419.270 6 209901729.00906      3493.032 6        36.938    40309429.198 4 162309365.94704      2701.611 4        29.688
C06  39132139.199 4                      3978.833 4        29.188    39132146.775 4                      3076.506 4        28.281
C09  38989207.371 6                      4559.571 6        37.656    38989212.768 5                      3525.677 5        35.719
C16  39282185.875 4                      3807.495 4        24.313    39282197.871 4                      2943.611 4        26.906
C20  23649592.841 7 123149642.41207      6401.012 7        45.500
C27  24311020.027 7 126593853.94507       407.636 7        45.844
C29  23299014.110 7 121324087.87207      5846.455 7        44.656
C30  21649871.471 8 112736556.72908      2664.002 8        52.188
C32  21669832.855 8 112840506.65308      3571.900 8        50.781
E02  27275924.023 4                      2359.461 4        27.406    27275931.187 3                      1808.842 3        19.500
E04  24244292.700 7 127404623.05407      5369.850 7        47.500    24244300.114 7  97621748.60307      4114.490 7        46.063
E09  27373074.088 3                      6791.511 3        20.625    27373091.191 5 110220093.56605      5203.744 5        34.344
E10  23562542.931 8 123821994.68208      2739.701 8        49.063    23562549.961 7  94876623.25907      2099.262 7        46.250
E11  22585842.203 7 118689398.88307      4162.824 7        45.094    22585845.232 7  90943841.35307      3189.614 7        42.531
E12  24894006.121 7 130818878.27007      1663.094 7        43.750    24894011.976 7 100237864.38807      1274.215 7        42.219
E19  25715766.936 6 135137267.14006      2185.958 6        36.781    25715773.344 5 103546761.09805      1674.702 5        35.563
E30                                                                  28463176.076 4 114609410.43804      3556.505 4        24.219
E36  26133632.433 6 137333166.32906      5990.756 6        39.906    26133642.584 6 105229358.27106      4590.302 6        38.563
G01  20036398.678 8 105291982.89108      2547.968 8        49.375    20036404.277 8  82045721.61508      1985.445 8        48.375    20036404.244 7  82045725.59907      1985.225 7        44.313
G02  21202982.456 8 111422420.46308      2184.515 8        50.781    21202983.449 6  86822674.43506      1702.234 6        36.250
G03  20350949.142 8 106944963.06208      4732.607 8        50.594    20350954.776 8  83333758.89308      3687.752 8        52.938    20350955.351 7  83333762.88407      3687.671 7        46.625
G04  23626334.419 5 124157234.32905      7273.628 5        35.000    23626344.481 2  96745930.17202      5667.734 2        14.281    23626344.590 6  96745929.20606      5667.377 6        37.156
G14                                                                                                                                  24421754.834 3                       696.574 3        22.313
G17  21956094.333 7 115380051.75407      5393.856 7        46.000    21956097.507 5  89906551.92305      4203.026 5        35.094    21956097.559 6  89906549.91606      4202.851 6        41.844
G19  23259896.316 6 122231604.98906      6853.313 6        38.719    23259900.189 3  95245403.25403      5340.284 3        22.625
G21  21805473.428 8 114588533.37308      1595.623 8        48.563    21805476.657 5  89289778.01305      1243.358 5        32.375
G32                                                                                                                                  24022792.101 4                       579.787 4        24.188
R01  20467023.431 7 109407964.76907      6777.389 7        47.094    20467031.807 6  85095135.42506      5271.928 6        39.563
R07  22127252.162 5 118448925.43605      -226.180 5        31.063    22127258.597 4  92126953.80004      -175.530 4        26.344
R08  19302012.490 7 103361401.20007      2694.122 7        46.563    19302017.245 7  80392222.89207      2095.553 7        44.750
R15  23720305.830 6 126754280.16106      1763.545 6        40.156    23720315.886 6  98586796.86106      1371.279 6        37.594
R16                                                                  23747518.021 3                      3706.734 3        21.188
R17  24232265.709 4 129671760.14004      7767.625 4        27.688    24232278.943 5 100855851.91305      6038.427 5        34.813
R22  23171180.083 7 123689337.59607      -286.793 7        43.031    23171191.771 6  96202855.10606      -224.077 6        39.906
R23  19349925.067 8 103509049.21808      2339.693 8        49.469
R24  20060100.426 8 107270374.42908      6177.838 8        51.469    20060106.960 7  83432543.43907      4804.748 7        45.188
S23  38743149.103 7 203596605.98007      3544.156 7        42.469
S36  38152790.876 7 200494286.27707      3547.920 7        45.000
> 2023 06 09 15 29 45.0000000  0 37
C05  40308747.942 6 209898236.16506      3492.679 6        36.656    40308758.438 5 162306665.16905      2700.472 5        35.063
C06  39131374.298 5                      3977.406 5        35.344    39131381.741 5                      3075.295 5        34.656
C09  38988330.910 6                      4558.139 6        39.500    38988337.556 6 156989877.45816      3524.963 6        39.406
C16  39281455.011 4                      3804.984 4        29.625    39281466.769 4                      2942.622 4        28.719
C20  23648363.909 7 123143242.48907      6399.479 7        45.063
C27  24310941.892 7 126593447.20107       406.313 7        46.938
C29  23297891.587 7 121318242.48907      5844.848 7        46.406
C30  21649360.078 8 112733893.77008      2662.172 8        50.906
C32  21669147.168 8 112836935.79508      3570.236 8        52.000
E02  27275475.090 3                      2357.502 3        18.656
E04  24243270.898 8 127399254.20708      5368.361 8        48.094    24243278.439 7  97617634.82707      4113.414 7        46.063
E09  27371782.531 4                      6790.528 4        26.688    27371799.041 5 110214889.95105      5203.720 5        30.406
E10  23562021.657 8 123819255.60608      2738.512 8        50.250    23562028.851 8  94874524.49008      2098.313 8        48.500
E11  22585050.214 7 118685236.95207      4161.352 7        45.031    22585053.382 7  90940652.36107      3188.702 7        43.063
E12  24893689.834 7 130817215.79107      1661.766 7        43.250    24893695.646 7 100236590.49907      1273.579 7        42.469
E19  25715351.044 6 135135082.15706      2184.216 6        40.500    25715357.697 6 103545086.88206      1673.691 6        40.281
E30  28462280.674 3                      4639.083 3        22.563    28462294.221 4 114605855.76604      3554.422 4        24.813
E36  26132492.547 6 137327176.52406      5989.111 6        36.375    26132502.775 6 105224768.67806      4589.038 6        36.000
G01  20035913.962 8 105289436.06708      2546.343 8        51.281    20035919.632 8  82043737.06608      1984.180 8        49.500    20035919.623 7  82043741.05607      1983.933 7        46.031
G02  21202566.926 8 111420236.64308      2183.083 8        49.688    21202567.879 6  86820972.74606      1701.111 6        36.875
G03  20350048.834 8 106940231.33908      4731.041 8        50.844    20350054.344 8  83330071.83108      3686.533 8        52.906    20350054.948 7  83330075.81507      3686.544 7        47.219
G04  23624950.109 5 124149961.78305      7272.732 5        32.188    23624960.652 2  96740263.28002      5667.011 2        14.031    23624960.746 6  96740262.38306      5666.843 6        37.156
G14                                                                                                                                  24421583.924 3                       697.128 3        23.781
G17  21955068.015 8 115374658.98608      5391.995 8        49.281    21955071.303 5  89902349.75205      4201.571 5        35.438    21955071.352 7  89902347.72607      4201.644 7        42.281
G19  23258592.477 6 122224752.79706      6851.748 6        38.531    23258596.234 3  95240063.88503      5338.975 3        21.500
G21  21805169.877 8 114586938.42108      1594.451 8        48.656    21805173.145 5  89288535.17705      1242.447 5        33.344
G32                                                                                                                                  24022650.856 4                       578.461 4        27.375
R01  20465755.524 7 109401188.16007      6776.095 7        45.531    20465764.293 6  85089864.76206      5270.001 6        40.938
R07  22127293.073 6 118449153.09206      -228.630 6        39.344    22127295.990 5  92127131.18705      -178.189 5        30.719
R08  19301509.314 8 103358708.14608      2691.962 8        49.344    19301514.394 7  80390128.26707      2093.949 7        46.406
R15  23719975.540 6 126752517.79706      1761.325 6        40.281    23719985.658 6  98585426.08506      1370.356 6        38.125
R17  24230815.595 5 129663997.26105      7763.190 5        33.344    24230827.259 4 100849813.85604      6038.167 4        29.969
R22  23171234.010 7 123689625.80907      -288.822 7        44.375    23171246.116 6  96203079.27606      -224.704 6        39.313
R23  19349487.759 8 103506710.44408      2337.988 8        48.375
R24  20058945.383 8 107264197.66208      6176.037 8        48.125    20058952.173 7  83427739.30607      4803.428 7        42.375
S23  38742472.939 7 203593062.67307      3543.084 7        43.938
S36  38152119.069 7 200490738.79907      3547.230 7        45.125
> 2023 06 09 15 29 46.0000000  0 37
C05  40308077.062 6 209894743.57806      3491.582 6        37.281    40308087.536 6 162303964.47506      2699.739 6        36.531
C06  39130609.859 6                      3976.725 6        36.813    39130617.049 6                      3075.839 6        36.000
C09  38987454.533 6                      4558.362 6        39.156    38987461.923 6 156986352.37606      3524.674 6        41.063
C16  39280723.945 4                      3804.098 4        29.188    39280735.498 4                      2941.674 4        28.625
C20  23647135.193 7 123136843.17107      6398.643 7        45.563
C27  24310864.172 8 126593040.87008       405.251 8        48.281
C29  23296769.528 7 121312398.03307      5843.953 7        45.875
C30  21648848.838 8 112731231.69808      2661.061 8        51.063
C32  21668461.560 8 112833365.79208      3569.232 8        51.656
E02  27275024.176 4                      2356.977 4        24.063
E04  24242249.434 8 127393886.03208      5367.223 8        48.125    24242256.920 7  97613521.57307      4112.453 7        45.813
E09  27370490.201 4                      6790.683 4        27.688    27370506.992 4 110209686.73404      5203.375 4        28.531
E10  23561500.568 8 123816517.16608      2737.662 8        50.344    23561507.673 8  94872426.19008      2097.703 8        48.344
E11  22584258.446 7 118681075.78607      4160.417 7        45.344    22584261.472 7  90937463.92607      3188.000 7        42.563
E12  24893373.546 7 130815553.78307      1661.235 7        43.344    24893379.297 6 100235317.00406      1272.503 6        41.781
E19  25714935.284 6 135132897.98206      2183.823 6        40.844    25714942.188 6 103543413.33606      1672.962 6        40.813
E30  28461400.780 3                      4637.184 3        20.500
E36  26131352.854 5 137321187.33105      5989.300 5        34.219    26131363.325 5 105220179.57805      4589.029 5        34.969
G01  20035429.559 8 105286890.11408      2545.149 8        51.281    20035435.156 8  82041753.19708      1983.235 8        50.344    20035435.056 7  82041757.19707      1983.135 7        45.750
G02  21202151.305 8 111418053.52008      2182.193 8        48.938    21202152.435 6  86819271.60906      1700.413 6        37.344
G03  20349148.631 8 106935500.56908      4729.928 8        50.406    20349154.090 8  83326385.50908      3685.665 8        53.000    20349154.691 7  83326389.49607      3685.656 7        47.406
G04  23623566.483 5 124142689.65905      7270.850 5        33.563    23623576.826 2  96734596.74502      5665.579 2        14.094    23623576.872 6  96734595.83306      5666.026 6        36.813
G14                                                                                                                                  24421413.917 3                       695.478 3        19.094
G17  21954042.017 8 115369267.33508      5391.144 8        48.063    21954045.315 5  89898148.45205      4200.904 5        35.844    21954045.402 6  89898146.40906      4201.018 6        41.125
G19  23257288.780 5 122217901.56805      6851.514 5        33.750    23257292.508 3  95234725.27503      5338.823 3        19.781
G21  21804866.565 8 114585344.01008      1593.645 8        48.906    21804869.738 5  89287292.76405      1241.795 5        34.031
G32                                                                                                                                  24022509.942 3                       576.916 3        21.594
R01  20464488.221 7 109394412.49107      6774.863 7        46.063    20464496.949 6  85084594.79106      5269.206 6        41.281
R07  22127333.737 6 118449381.64106      -228.077 6        40.469    22127338.739 5  92127308.79805      -178.058 5        32.688
R08  19301006.710 8 103356016.28008      2690.980 8        48.875    19301011.793 7  80388034.62907      2092.857 7        46.563
R15  23719646.276 6 126750756.88006      1759.713 6        36.813    23719656.153 5  98584056.59605      1369.661 5        33.844
R17  24229365.437 5 129656235.01405      7762.686 5        30.813    24229375.584 4                      6037.860 4        29.875
R22  23171287.800 7 123689914.42907      -289.498 7        45.250    23171300.631 6  96203303.72006      -225.432 6        37.875
R23  19349050.673 8 103504372.69408      2336.672 8        49.000
R24  20057790.453 7 107258021.98807      6174.932 7        46.656    20057797.841 6  83422936.02806      4802.497 6        41.875
S23  38741798.571 7 203589519.54107      3542.101 7        43.656
S36  38151446.052 7 200487191.31107      3546.568 7        44.844
> 2023 06 09 15 29 47.0000000  0 38
C05                                                                  40307416.882 6 162301264.08506      2700.852 6        36.344
C06  39129845.636 6                      3978.555 6        36.938    39129852.128 6                      3075.935 6        38.000
C09  38986578.332 6                      4559.444 6        38.063    38986586.677 6 156982827.04006      3525.648 6        40.125
C16  39279992.124 5                      3805.495 5        31.625    39280002.935 5                      2942.547 5        33.531
C20  23645906.641 7 123130446.15907      6397.248 7        44.531
C27  24310786.234 7 126592635.94207       405.516 7        47.781
C29  23295647.478 7 121306554.23107      5843.621 7        44.781
C30  21648337.720 8 112728571.13508      2660.657 8        51.500
C32  21667776.087 8 112829796.85108      3569.035 8        52.031
E02  27274575.628 3                      2356.360 3        20.000    27274584.562 3                      1804.546 3        23.000
E04  24241228.404 8 127388519.37608      5367.049 8        48.469    24241235.778 7  97609409.43807      4112.533 7        46.000
E09  27369197.173 5                      6787.926 5        30.000    27369215.150 4 110204485.28704      5202.818 4        28.938
E10  23560979.553 8 123813779.38608      2738.025 8        50.281    23560986.750 8  94870328.42108      2097.855 8        48.688
E11  22583466.559 7 118676915.31307      4160.370 7        43.719    22583469.781 6  90934276.03506      3187.708 6        41.281
E12  24893057.145 7 130813892.35107      1661.919 7        43.469    24893063.176 7 100234043.91607      1273.831 7        42.281
E19  25714519.816 7 135130713.61407      2184.380 7        42.906    25714526.786 6 103541739.53506      1673.854 6        40.656
E30                                                                  28460526.769 3                      3554.156 3        22.531
E36  26130213.045 5 137315198.90305      5988.141 5        31.813    26130223.972 6 105215590.96806      4588.691 6        37.469
G01  20034945.092 8 105284344.98408      2545.170 8        51.781    20034950.829 8  82039769.97308      1983.258 8        51.125    20034950.685 7  82039773.95907      1983.238 7        46.406
G02  21201735.990 8 111415871.20808      2182.675 8        48.844    21201737.147 6  86817571.10806      1700.784 6        37.406
G03  20348248.855 8 106930771.28908      4729.135 8        50.813    20348254.140 8  83322700.35008      3685.057 8        52.906    20348254.777 7  83322704.33907      3684.936 7        46.500
G04  23622182.255 5 124135419.71105      7270.687 5        31.344    23622193.482 2  96728931.87602      5665.476 2        13.438    23622193.227 5  96728931.00205      5665.441 5        35.969
G14                                                                                                                                  24421240.508 3                       695.113 3        23.906
G17  21953016.201 7 115363876.60007      5390.514 7        45.938    21953019.495 5  89893947.86705      4200.433 5        35.156    21953019.072 5  89893945.90005      4199.848 5        35.656
G19  23255985.378 3                      6849.516 3        23.219
G21  21804563.181 7 114583750.32207      1594.272 7        47.969    21804566.467 5  89286050.91805      1242.295 5        34.469
G28                                                                                                                                  24296855.733 5  99491564.74315      4175.455 5        34.719
G32  24022385.714 5                       740.578 5        31.469
R01  20463221.220 7 109387639.20407      6773.413 7        46.688    20463229.761 6  85079326.69206      5268.006 6        40.313
R07  22127375.116 7 118449609.51707      -227.851 7        42.156    22127381.776 6  92127486.02606      -177.489 6        39.094
R08  19300504.065 8 103353325.38408      2690.727 8        50.250    19300509.393 7  80385941.68707      2092.845 7        46.938
R15  23719317.314 4 126748996.50104      1760.686 4        29.188    23719328.652 5  98582687.33505      1368.974 5        35.375
R16  23744842.535 5                      4764.658 5        31.500    23744848.315 4                      3704.890 4        27.406
R17  24227914.760 4                      7762.077 4        28.375    24227926.558 4                      6038.062 4        29.000
R22  23171342.110 7 123690204.16507      -289.105 7        45.375    23171355.360 6  96203529.08706      -224.942 6        39.125
R23  19348613.912 8 103502036.15308      2336.780 8        48.406
R24  20056636.143 6 107251847.15606      6174.948 6        40.125    20056642.674 6  83418133.36206      4802.709 6        37.594
S36  38150769.147 7 200483645.46207      3546.514 7        44.188
> 2023 06 09 15 29 48.0000000  0 38
C05                                                                  40306746.446 6 162298564.21306      2699.279 6        37.344
C06  39129080.734 5                      3976.967 5        35.094    39129087.333 6                      3075.172 6        37.719
C09  38985702.895 6                      4557.995 6        38.531    38985711.721 6 156979302.17006      3524.711 6        40.500
C16  39279259.914 5                      3804.879 5        33.188    39279270.523 5                      2942.107 5        32.906
C20  23644678.373 7 123124049.94207      6395.766 7        45.531
C27  24310708.487 7 126592231.84107       403.479 7        47.531
C29  23294525.583 6 121300711.24506      5843.171 6        39.125
C30  21647827.000 8 112725911.66908      2658.960 8        52.281
C32  21667090.914 8 112826228.92408      3567.435 8        52.031
E02  27274127.146 3                      2354.659 3        22.531    27274137.051 4                      1805.077 4        26.656
E04  24240207.224 7 127383153.70007      5365.169 7        47.750    24240214.607 7  97605298.11007      4110.917 7        46.000
E09  27367906.113 4                      6786.960 4        29.250    27367923.338 4 110199284.21804      5199.296 4        26.688
E10  23560458.733 8 123811042.38308      2736.697 8        50.188    23560466.077 8  94868231.25108      2096.927 8        48.031
E11  22582674.967 7 118672755.59607      4159.594 7        42.344    22582678.186 6  90931088.72806      3187.235 6        40.313
E12  24892740.909 7 130812231.69807      1660.111 7        43.813    24892747.077 6 100232771.50206      1271.989 6        41.188
E19  25714104.359 7 135128530.10607      2183.095 7        42.125    25714111.469 6 103540066.45006      1672.935 6        41.438
E30                                                                  28459644.294 3                      3552.757 3        18.375
E36  26129073.749 5 137309210.88405      5987.884 5        34.031    26129084.392 6 105211002.70806      4588.284 6        37.156
G01  20034460.800 8 105281800.81208      2543.727 8        50.594    20034466.685 8  82037787.49508      1982.122 8        51.625    20034466.488 7  82037791.50007      1982.006 7        46.188
G02  21201320.770 8 111413689.85308      2180.739 8        49.250    21201322.040 6  86815871.35006      1699.282 6        37.563
G03  20347349.257 8 106926042.97408      4727.973 8        51.188    20347354.373 8  83319015.94008      3684.137 8        52.781    20347354.960 7  83319019.93907      3684.225 7        45.813
G04  23620799.189 5 124128150.60305      7268.737 5        33.594    23620810.215 2  96723267.66202      5664.001 2        13.188    23620809.512 5  96723266.72505      5664.108 5        35.281
G14                                                                                                                                  24421070.716 3                       688.314 3        18.969
G17  21951990.495 6 115358486.87306      5389.359 6        40.469    21951993.831 5  89889748.08205      4199.465 5        33.469    21951993.655 4  89889746.16004      4201.523 4        29.031
G19  23254682.575 5                      6850.023 5        32.625
G21  21804259.929 7 114582157.49607      1592.233 7        47.969    21804263.355 5  89284809.76005      1240.695 5        34.781
G28                                                                                                                                  24295834.322 6  99487391.06806      4173.433 6        36.938
G32  24022245.265 5                       740.203 5        31.531
R01  20461954.638 7 109380867.08107      6771.562 7        45.875    20461963.447 7  85074059.53907      5266.733 7        42.000
R07  22127417.677 7 118449838.02707      -228.657 7        42.063    22127424.542 6  92127663.70706      -177.864 6        38.281
R08  19300001.655 8 103350635.79408      2689.152 8        49.281    19300007.152 7  80383849.78507      2091.404 7        47.469
R15  23718989.845 4 126747236.90904      1759.037 4        29.281    23718999.170 4  98581319.14804      1368.597 4        27.094
R16  23743949.976 5                      4763.096 5        33.844
R17  24226466.116 4                      7762.650 4        27.656
R22  23171396.343 7 123690494.73807      -291.186 7        45.531    23171410.060 6  96203755.12906      -226.435 6        39.656
R23  19348177.400 8 103499700.86408      2334.661 8        49.125
R24  20055481.690 7 107245673.10807      6174.198 7        43.250    20055488.289 6  83413331.32706      4802.101 6        40.625
S36  38150095.625 7 200480100.30807      3544.995 7        45.188
> 2023 06 09 15 29 49.0000000  0 35
C05                                                                  40306075.929 6 162295864.62606      2701.109 6        37.375
C06  39128317.123 6                      3976.474 6        37.281    39128323.283 6                      3075.149 6        38.469
C09  38984827.387 6                      4558.615 6        38.813    38984836.840 6 156975777.65906      3524.588 6        40.875
C16  39278528.142 5                      3804.072 5        31.188    39278537.852 5                      2941.766 5        31.031
C20  23643449.996 7 123117654.45007      6396.639 7        44.750
C27  24310631.179 7 126591828.52807       405.252 7        47.563
C29  23293403.384 5 121294868.73205      5840.131 5        32.750
C30  21647316.438 8 112723253.06808      2659.112 8        52.438
C32  21666405.841 8 112822661.82308      3567.400 8        51.563
E02  27273678.258 3                      2352.379 3        19.469    27273689.008 4                      1804.140 4        26.188
E04  24239186.326 7 127377788.90007      5366.071 7        47.625    24239193.439 7  97601187.40107      4111.801 7        45.531
E09  27366614.731 4                      6786.660 4        26.125
E10  23559938.072 8 123808306.06308      2736.662 8        50.531    23559945.363 7  94866134.56907      2097.053 7        47.625
E11  22581883.519 6 118668596.36806      4159.103 6        41.375    22581886.861 6  90927901.79406      3186.917 6        39.594
E12  24892424.899 7 130810571.71507      1660.882 7        43.594    24892431.237 6 100231499.54406      1272.784 6        41.250
E19  25713689.159 6 135126347.19606      2182.929 6        41.938    25713696.190 6 103538393.87306      1672.344 6        41.281
E36  26127934.026 5 137303223.04105      5987.418 5        34.844    26127944.817 5 105206414.65505      4587.560 5        35.719
G01  20033976.861 8 105279257.48008      2543.478 8        50.813    20033982.704 8  82035805.68008      1981.931 8        51.844    20033982.549 7  82035809.69007      1981.872 7        46.156
G02  21200905.698 8 111411509.24608      2181.359 8        49.469    21200907.051 6  86814172.16806      1699.775 6        38.000
G03  20346449.642 8 106921315.47608      4727.687 8        50.219    20346454.752 8  83315332.17708      3683.904 8        52.438    20346455.180 7  83315336.17507      3683.781 7        44.813
G04  23619416.052 5 124120882.17505      7270.422 5        34.656    23619426.949 2  96717603.94202      5665.259 2        13.063    23619426.741 5  96717602.96905      5665.531 5        35.469
G17  21950965.034 6 115353097.76506      5387.709 6        36.500    21950968.271 5  89885548.76905      4198.538 5        31.375    21950968.515 4  89885547.09404      4199.130 4        25.969
G19  23253379.321 5                      6849.682 5        31.375
G21  21803956.889 8 114580565.33808      1593.209 8        48.094    21803960.380 5  89283569.12305      1241.465 5        34.906
G28  24294798.549 4                      5355.299 4        28.750                                                                    24294813.087 5  99483218.03305      4174.141 5        32.563
G32  24022103.336 5                       739.580 5        32.219                                                                    24022087.928 3                       576.943 3        19.313
R01  20460687.981 7 109374096.00907      6772.304 7        44.656    20460697.293 7  85068793.15307      5267.200 7        42.000
R07  22127460.175 7 118450066.91807      -229.987 7        43.125    22127467.780 6  92127841.78706      -178.750 6        38.000
R08  19299499.428 8 103347947.27608      2688.237 8        49.000    19299505.264 7  80381758.72507      2090.808 7        47.281
R15  23718661.977 4 126745479.24404      1756.313 4        27.594    23718671.011 5  98579951.27105      1368.299 5        33.188
R16  23743056.876 5 126831134.35405      4760.101 5        32.406
R22  23171451.228 7 123690786.09607      -289.547 7        46.625    23171465.108 6  96203981.70206      -225.180 6        39.656
R23  19347741.213 8 103497366.66408      2334.648 8        49.344
R24  20054327.403 7 107239499.64107      6172.850 7        44.375    20054333.547 6  83408529.73806      4800.955 6        40.375
S36  38149418.128 7 200476555.70307      3546.683 7        44.688
> 2023 06 09 15 29 50.0000000  0 35
C05  40305395.032 6 209880765.19416      3489.499 6        38.094    40305405.463 6 162293165.52206      2698.594 6        36.406
C06  39127553.635 6                      3976.991 6        36.688    39127559.827 6                      3074.809 6        38.750
C09  38983951.610 6                      4557.582 6        38.469    38983961.967 6 156972253.51906      3524.271 6        40.000
C16  39277796.405 5                      3803.777 5        31.625    39277805.839 5                      2941.641 5        31.156
C20  23642221.611 7 123111259.81407      6393.793 7        45.094
C27  24310553.953 8 126591426.01508       401.359 8        48.219
C29  23292281.940 6 121289026.79806      5842.437 6        38.125
C30  21646806.169 8 112720595.40008      2656.854 8        52.094
C32  21665720.858 8 112819095.63008      3565.737 8        51.938
E02  27273230.666 3                      2352.118 3        19.188    27273240.491 4                      1803.395 4        25.250
E04  24238165.678 7 127372425.02607      5362.724 7        47.281    24238172.626 7  97597077.41707      4109.201 7        45.438
E09  27365323.143 4                      6785.566 4        29.781
E10  23559417.624 8 123805570.41008      2735.236 8        50.219    23559424.810 7  94864038.43307      2095.779 7        47.719
E11  22581092.281 7 118664437.75607      4158.580 7        42.313    22581095.546 6  90924715.30906      3186.451 6        40.563
E12  24892109.289 7 130808912.38307      1658.762 7        43.469    24892115.475 6 100230228.10806      1270.876 6        41.281
E19  25713273.841 7 135124165.05107      2182.111 7        42.313    25713280.962 6 103536721.78606      1672.165 6        41.125
E36  26126795.035 5 137297235.60105      5988.195 5        35.156    26126805.238 6 105201826.91406      4587.984 6        37.500
G01  20033493.091 8 105276715.01308      2541.992 8        50.844    20033498.894 8  82033824.54108      1980.772 8        52.031    20033498.737 7  82033828.54807      1980.709 7        46.406
G02  21200490.871 8 111409329.45408      2179.101 8        49.281    21200492.242 6  86812473.62506      1698.004 6        38.219
G03  20345550.291 8 106916588.88608      4726.010 8        50.750    20345555.294 8  83311649.12308      3682.604 8        52.063    20345555.445 7  83311653.11507      3682.542 7        45.688
G04  23618033.511 5 124113614.48805      7266.102 5        34.875    23618043.762 2  96711940.82802      5661.905 2        12.594    23618043.664 6  96711939.85606      5662.097 6        36.406
G17  21949939.210 6 115347709.45906      5388.528 6        40.250    21949943.178 4  89881350.18604      4198.733 4        29.156    21949944.506 5  89881348.14105      4198.592 5        30.688
G19  23252076.080 5                      6849.137 5        30.906
G21  21803653.918 7 114578973.95007      1590.519 7        47.750    21803657.556 5  89282329.08405      1239.357 5        35.000
G28  24293779.108 4                      5354.554 4        28.188                                                                    24293792.189 5  99479045.73305      4170.748 5        32.719
G32  24021961.348 5                       738.995 5        30.906                                                                    24021947.465 3                       577.092 3        20.750
R01  20459421.360 7 109367326.08507      6768.519 7        45.375    20459431.230 6  85063527.59306      5264.646 6        40.969
R07  22127502.715 6 118450296.29706      -228.193 6        41.563    22127510.731 6  92128020.14606      -177.271 6        37.625
R08  19298997.751 8 103345259.91708      2686.971 8        49.938    19299003.296 7  80379668.51907      2089.819 7        47.656
R15                                                                  23718344.237 5  98578584.53005      1367.374 5        33.344
R16  23742161.923 4 126826372.68404      4763.052 4        27.125
R22  23171506.277 7 123691078.24907      -293.168 7        46.063    23171519.691 6  96204208.86806      -228.241 6        40.156
R23  19347304.977 8 103495033.55308      2332.454 8        49.125
R24  20053173.076 7 107233326.74207      6173.185 7        44.125    20053179.187 6  83403728.59706      4801.471 6        40.031
S36  38148739.857 7 200473011.69107      3542.639 7        45.125
> 2023 06 09 15 29 51.0000000  0 37
C05  40304724.664 6 209877275.43506      3488.790 6        37.188    40304735.748 5 162290466.96105      2697.897 5        34.469
C06  39126790.001 5 203743472.72115      3975.411 5        33.531    39126795.927 5 157547407.85015      3074.259 5        35.906
C09  38983076.190 6 202995131.54516      4555.940 6        36.031    38983086.450 6 156968729.75006      3522.666 6        36.469
C16  39277064.593 4                      3804.015 4        27.313    39277074.988 4                      2941.431 4        29.250
C20  23640993.587 7 123104866.14007      6393.458 7        44.438
C27  24310476.957 7 126591024.68507       400.330 7        47.313
C29  23291160.256 6 121283184.91706      5842.342 6        37.219
C30  21646295.996 8 112717938.79208      2655.940 8        50.844
C32  21665036.329 8 112815530.33908      3564.620 8        51.906
E02  27272783.495 3                      2352.442 3        23.000    27272793.257 3                      1803.843 3        22.219
E04  24237145.102 8 127367062.32308      5361.931 8        48.188    24237151.911 7  97592968.35807      4108.426 7        44.750
E09  27364032.042 5                      6784.917 5        30.219    27364047.759 4 110183684.68404      5198.474 4        27.219
E10  23558897.151 8 123802835.50808      2734.274 8        49.500    23558904.260 8  94861942.85208      2095.134 8        48.063
E11  22580301.118 7 118660279.63907      4157.817 7        43.063    22580304.322 6  90921529.20506      3186.078 6        41.406
E12  24891793.781 7 130807253.95807      1657.386 7        43.406    24891799.924 6 100228957.37506      1269.965 6        41.063
E19  25712858.571 7 135121983.45407      2180.826 7        42.969    25712865.788 6 103535050.18706      1670.991 6        41.313
E30                                                                  28456997.554 4                      3553.188 4        24.750
E36  26125655.656 5 137291248.17105      5987.817 5        35.406    26125665.848 6 105197239.07006      4588.150 6        38.563
G01  20033009.537 8 105274173.41608      2540.941 8        51.094    20033015.253 8  82031844.07308      1979.960 8        52.375    20033015.145 7  82031848.05307      1979.994 7        46.906
G02  21200076.287 8 111407150.59108      2177.978 8        49.094    21200077.616 6  86810775.80306      1697.130 6        38.375
G03  20344650.712 8 106911863.08108      4725.541 8        50.250    20344655.979 8  83307966.67608      3682.242 8        52.281    20344656.400 7  83307970.68707      3682.124 7        47.156
G04  23616651.127 5 124106347.97405      7265.762 5        33.406    23616660.777 2  96706278.63702      5661.620 2        13.063    23616660.767 5  96706277.66005      5661.818 5        35.750
G14                                                                                                                                  24420558.080 4                       693.554 4        27.688
G17  21948914.175 6 115342321.44506      5388.170 6        41.406    21948918.257 4  89877151.70204      4198.607 4        28.094    21948919.549 5  89877149.67605      4197.583 5        32.469
G19  23250772.502 5                      6849.259 5        34.469
G21  21803351.450 7 114577383.44507      1589.455 7        47.875    21803354.899 5  89281089.72705      1238.534 5        35.188
G28  24292757.754 5                      5353.466 5        30.750
G32  24021818.377 4                       738.666 4        28.813                                                                    24021801.274 4                       575.261 4        27.219
R01  20458155.219 7 109360557.45107      6768.160 7        46.844    20458165.268 6  85058263.10906      5264.131 6        39.813
R07  22127545.309 7 118450525.89207      -229.884 7        43.781    22127554.362 6  92128198.80306      -179.242 6        40.125
R08  19298496.236 8 103342573.62908      2685.364 8        51.063    19298501.861 8  80377579.17408      2088.654 8        48.375
R15                                                                  23718017.437 5  98577218.68605      1366.836 5        31.313
R22  23171561.338 7 123691371.63407      -294.458 7        43.594    23171574.712 6  96204437.04106      -228.590 6        38.344
R23  19346869.089 8 103492701.72508      2330.932 8        48.500
R24  20052018.538 7 107227154.44207      6172.270 7        43.938    20052024.873 6  83398927.94306      4800.857 6        41.125
S23  38738430.991 7 203571815.01917      3538.066 7        44.063
S36  38148069.723 7 200469468.63007      3542.308 7        45.063
> 2023 06 09 15 29 52.0000000  0 37
C05  40304054.386 6 209873784.58306      3492.514 6        37.438    40304065.033 5 162287767.67405      2700.100 5        33.969
C06  39126025.412 5 203739497.41405      3976.936 5        31.188    39126032.827 5 157544333.87905      3074.655 5        35.031
C09  38982201.071 6 202990574.84906      4557.746 6        38.156    38982211.031 6 156965206.22006      3523.949 6        37.000
C16  39276334.498 4                      3802.729 4        27.469    39276343.824 4                      2940.542 4        25.625
C20  23639765.969 7 123098471.53307      6395.443 7        44.313
C27  24310399.652 7 126590621.98307       403.990 7        46.813
C29  23290039.631 4 121277344.67804      5840.833 4        29.125
C30  21645785.815 8 112715282.04308      2657.494 8        50.906
C32  21664351.601 8 112811965.22408      3565.940 8        50.781
E02  27272335.966 3                      2351.182 3        21.875    27272345.643 3                      1800.630 3        20.031
E04  24236124.626 8 127361698.87608      5364.453 8        48.094    24236131.492 7  97588858.70207      4110.357 7        45.219
E09  27362740.490 4                      6787.007 4        29.969    27362756.352 4 110178483.97904      5203.032 4        27.375
E10  23558376.478 8 123800100.58908      2735.830 8        49.688    23558383.938 7  94859847.26507      2096.299 7        47.938
E11  22579509.934 7 118656122.01907      4158.183 7        44.125    22579513.161 7  90918343.50607      3186.278 7        42.000
E12  24891478.378 7 130805595.00407      1660.171 7        42.531    24891484.322 7 100227686.21807      1272.376 7        42.125
E19  25712443.588 6 135119802.77306      2181.906 6        41.875    25712450.737 6 103533379.30406      1671.457 6        40.094
E30                                                                  28456115.191 4                      3550.532 4        26.969
E36  26124516.149 5 137285261.44805      5986.644 5        32.094    26124526.379 5 105192651.87005      4587.530 5        31.750
G01  20032525.979 8 105271632.12108      2542.063 8        51.469    20032531.658 8  82029863.83908      1980.830 8        52.500    20032531.484 7  82029867.84507      1980.677 7        46.406
G02  21199661.735 8 111404971.52108      2180.075 8        49.250    21199662.960 6  86809077.82106      1698.763 6        38.500
G03  20343751.211 8 106907137.62008      4726.086 8        50.250    20343756.778 8  83304284.49708      3682.669 8        52.188    20343757.371 7  83304288.49607      3682.567 7        46.813
G04  23615268.291 5 124099079.72805      7268.907 5        32.406    23615277.406 2  96700615.07302      5664.072 2        12.781    23615277.563 5  96700614.18005      5664.016 5        35.219
G14                                                                                                                                  24420392.192 4                       692.945 4        26.094
G17  21947889.439 5 115336934.91405      5386.624 5        35.938    21947893.235 4  89872954.38104      4197.374 4        26.219    21947894.196 4  89872952.57704      4197.143 4        28.000
G19  23249469.912 5                      6848.534 5        30.594
G21  21803048.754 8 114575792.48808      1592.168 8        48.375    21803052.153 5  89279850.01905      1240.652 5        35.375
G32                                                                                                                                  24021660.919 4                       574.008 4        25.719
R01  20456889.203 7 109353788.15507      6770.083 7        47.063    20456899.207 6  85052998.10906      5265.768 6        40.281
R07  22127588.483 7 118450756.92607      -230.015 7        44.750    22127597.076 6  92128378.44306      -179.223 6        40.188
R08  19297994.867 8 103339888.23208      2686.011 8        50.781    19298000.444 8  80375490.56708      2089.146 8        48.094
R15  23717674.451 4                      1754.400 4        28.313    23717689.845 6  98575853.51106      1366.147 6        36.000
R17  24220670.285 3                      7760.990 3        23.344
R22  23171615.801 7 123691663.65907      -290.345 7        44.156    23171628.412 6  96204664.19006      -225.966 6        39.781
R23  19346433.372 8 103490370.00708      2332.534 8        48.969
R24  20050864.763 7 107220983.42007      6171.313 7        45.531    20050870.662 6  83394128.25206      4800.150 6        41.313
S23  38737757.726 7 203568274.22107      3542.189 7        42.469
S36  38147399.225 7 200465923.93007      3545.949 7        45.500
> 2023 06 09 15 29 53.0000000  0 39
C05  40303384.276 6 209870295.43806      3487.620 6        36.281    40303394.829 5 162285069.64305      2697.150 5        34.250
C06  39125261.715 5 203735522.26705      3974.024 5        35.250    39125269.492 5 157541260.02205      3072.603 5        35.469
C09  38981326.440 6 202986018.76806      4554.489 6        38.750    38981335.753 6 156961683.19106      3521.999 6        37.969
C16  39275602.958 4                      3802.698 4        29.688    39275613.670 4                      2939.973 4        24.188
C20  23638538.515 7 123092078.67407      6392.812 7        44.063
C27  24310322.755 7 126590221.65707       398.910 7        46.219
C29  23288918.307 4 121271503.66904      5842.347 4        28.813
C30  21645276.108 8 112712626.76708      2654.763 8        50.813
C32  21663667.149 8 112808401.30308      3563.167 8        50.813
E02  27271888.343 3                      2352.185 3        18.344    27271896.482 3                      1800.107 3        18.938
E04  24235104.361 8 127356337.45908      5360.498 8        48.500    24235111.316 7  97584750.58807      4107.307 7        44.844
E09  27361449.215 4                      6784.625 4        27.969    27361465.662 4 110173285.34404      5197.659 4        26.500
E10  23557856.256 8 123797366.70208      2732.983 8        50.000    23557863.672 7  94857752.44907      2094.099 7        47.781
E11  22578718.636 7 118651964.68207      4157.254 7        44.063    22578722.056 6  90915158.03306      3185.245 6        41.875
E12  24891163.154 7 130803937.58207      1655.920 7        42.969    24891168.867 6 100226416.27106      1269.066 6        41.406
E19  25712028.736 6 135117622.47806      2178.930 6        41.063    25712035.739 6 103531708.70006      1669.488 6        39.344
E30  28455223.600 3                      4635.120 3        19.813    28455233.248 4                      3552.287 4        28.188
E36  26123376.676 5 137279274.19905      5987.960 5        33.000
G01  20032042.634 8 105269091.90708      2539.226 8        50.563    20032048.268 8  82027884.45408      1978.620 8        52.656    20032048.218 7  82027888.43607      1978.753 7        46.844
G02  21199247.360 8 111402793.87008      2176.644 8        49.063    21199248.570 6  86807380.95506      1696.082 6        38.688
G03  20342852.078 8 106902413.04608      4724.533 8        50.094    20342857.747 8  83300603.00808      3681.452 8        52.219    20342858.486 7  83300607.00907      3681.443 7        46.875
G04  23613885.704 5 124091813.94705      7265.289 5        33.063    23613894.678 2  96694953.45502      5661.252 2        12.281    23613894.614 5  96694952.50305      5661.920 5        35.313
G14                                                                                                                                  24420222.985 4                       691.744 4        26.500
G17  21946864.833 5 115331548.13305      5388.432 5        32.906    21946868.194 4  89868756.94504      4198.722 4        24.188    21946869.378 4  89868755.00004      4198.154 4        28.813
G19  23248168.295 4                      6845.788 4        26.438
G21  21802746.490 8 114574203.07708      1588.076 8        48.063    21802749.713 5  89278611.51205      1237.463 5        35.625
G28  24290713.896 5                      5352.083 5        33.625                                                                    24290730.607 4  99466533.32804      4172.770 4        29.719
G32                                                                                                                                  24021519.942 3                       574.534 3        23.063
R01  20455623.258 7 109347021.00707      6767.045 7        46.875    20455633.109 6  85047734.77706      5263.076 6        39.344
R07  22127631.488 7 118450987.43807      -231.547 7        45.344    22127639.787 6  92128557.70206      -180.243 6        38.969
R08  19297493.581 8 103337203.86708      2683.407 8        50.594    19297499.072 8  80373402.71008      2087.196 8        48.094
R15  23717345.063 5                      1755.226 5        30.125    23717362.415 5  98574488.35305      1364.689 5        32.094
R16  23739485.021 5 126812094.66805      4759.870 5        34.031    23739517.027 4                      3701.166 4        27.063
R17  24219223.112 3                      7759.861 3        20.688    24219240.002 4                      6036.832 4        28.969
R22  23171670.532 7 123691958.07907      -295.735 7        45.094    23171683.043 6  96204893.16506      -229.829 6        39.688
R23  19345997.973 8 103488039.97208      2328.950 8        48.375
R24  20049710.338 7 107214812.22807      6171.176 7        45.875    20049716.939 6  83389328.44106      4799.496 6        40.750
S23  38737083.448 7 203564735.57307      3537.473 7        42.719
S36  38146725.509 7 200462381.29307      3542.002 7        45.406
> 2023 06 09 15 29 54.0000000  0 38
C05  40302714.647 6 209866807.22506      3487.913 6        36.813    40302724.929 5 162282372.20005      2697.093 5        35.281
C06  39124499.177 5 203731548.37005      3971.956 5        32.094    39124506.190 5 157538187.00105      3073.265 5        33.406
C09  38980451.882 6 202981463.76606      4553.926 6        39.688    38980460.854 6 156958160.96806      3521.601 6        40.219
C16  39274872.519 4                      3801.379 4        25.375    39274884.487 4                      2939.993 4        27.531
C20  23637311.111 6 123085686.31906      6392.711 6        41.281
C27  24310245.906 7 126589822.14007       399.689 7        45.250
C29  23287795.608 6 121265663.58206      5839.271 6        36.719
C30  21644766.237 8 112709972.45808      2653.981 8        51.688
C32  21662983.113 8 112804838.46808      3562.184 8        51.719
E04  24234084.271 7 127350976.99407      5360.291 7        47.938    24234091.226 7  97580643.22007      4107.271 7        45.688
E09  27360158.079 4                      6783.804 4        25.844    27360174.782 4 110168086.69704      5198.426 4        29.375
E10  23557336.258 8 123794633.77908      2732.472 8        50.344    23557343.585 8  94855658.38408      2093.561 8        48.031
E11  22577927.773 7 118647808.24207      4155.505 7        43.531    22577931.161 6  90911973.19506      3184.198 6        41.063
E12  24890848.118 7 130802281.15407      1655.767 7        43.531    24890853.700 6 100225147.02806      1268.931 6        41.813
E19  25711613.828 6 135115443.59506      2177.584 6        41.406    25711620.786 6 103530039.16106      1668.317 6        38.000
E30  28454342.484 3                      4634.186 3        22.656    28454351.744 5                      3551.068 5        32.719
E36                                                                  26122247.672 4 105183476.73504      4584.308 4        26.344
G01  20031559.458 8 105266552.83408      2538.358 8        51.313    20031565.111 8  82025905.95108      1977.945 8        52.781    20031565.184 7  82025909.94607      1977.905 7        47.000
G02  21198833.432 8 111400617.35308      2175.801 8        48.969    21198834.381 6  86805684.96506      1695.437 6        38.656
G03  20341953.367 8 106897689.38808      4723.070 8        49.438    20341958.886 8  83296922.23308      3680.317 8        51.875    20341959.752 7  83296926.22907      3680.465 7        45.094
G04  23612503.504 5 124084548.63205      7266.396 5        32.313    23612512.081 2  96689292.17302      5662.150 2        12.406    23612511.898 5  96689291.21705      5661.778 5        35.531
G14                                                                                                                                  24420055.586 3                       692.059 3        22.000
G17  21945840.859 6 115326162.62006      5384.902 6        39.750    21945843.386 3  89864560.43103      4196.089 3        22.469    21945843.993 5  89864558.31105      4196.071 5        34.406
G19  23246864.639 5                      6847.831 5        30.000
G21  21802444.272 8 114572614.70408      1587.819 8        48.375    21802447.438 5  89277373.80905      1237.270 5        35.406
G28                                                                                                                                  24289712.438 4  99462364.18504      4167.891 4        26.563
G32                                                                                                                                  24021380.531 5                       573.502 5        31.500
R01  20454357.355 7 109340254.73207      6766.235 7        43.719    20454366.779 6  85042472.09206      5262.823 6        41.750
R07  22127675.180 7 118451219.34907      -233.471 7        46.656    22127682.814 6  92128738.04606      -181.611 6        40.813
R08  19296992.842 8 103334521.00208      2681.865 8        50.469    19296997.966 7  80371316.05407      2085.821 7        46.719
R15  23717016.161 4                      1754.472 4        27.563    23717037.014 4  98573123.90904      1362.778 4        26.219
R16  23738592.138 5 126807337.18705      4756.329 5        34.250    23738627.850 4                      3699.473 4        29.625
R17                                                                  24217790.146 4                      6036.231 4        24.469
R22  23171725.780 7 123692253.47507      -296.005 7        43.438    23171738.411 6  96205122.87806      -229.890 6        39.156
R23  19345562.591 8 103485711.32908      2328.058 8        48.625
R24  20048556.496 7 107208642.03807      6168.747 7        44.281    20048562.791 6  83384529.42806      4797.819 6        38.750
S23  38736410.065 7 203561197.51607      3538.225 7        42.906
S36  38146053.738 7 200458839.07007      3542.453 7        45.250
