     3.03           OBSERVATION DATA    M: Mixed            RINEX VERSION / TYPE
CONVBIN 2.4.3                           20230609 124426 UTC PGM / RUN BY / DATE 
log: C:\Users\augustin.morge\Documents\uwb_project\log_trollCOMMENT             
format: RINEX                                               COMMENT             
SEPT                                                        MARKER NAME         
Unknown                                                     MARKER NUMBER       
                                                            MARKER TYPE         
                                                            OBSERVER / AGENCY   
3047871             SEPT ASTERX4        4.10.0              REC # / TYPE / VERS 
Unknown             Unknown                                 ANT # / TYPE        
  4198187.8169   151309.0003  4783361.9919                  APPROX POSITION XYZ 
        0.0000        0.0000        0.0000                  ANTENNA: DELTA H/E/N
G   12 C1C L1C D1C S1C C2L L2L D2L S2L C2W L2W D2W S2W      SYS / # / OBS TYPES 
R    8 C1C L1C D1C S1C C2C L2C D2C S2C                      SYS / # / OBS TYPES 
E    8 C1C L1C D1C S1C C7Q L7Q D7Q S7Q                      SYS / # / OBS TYPES 
  2023     6     6    12    55   12.0000000     GPS         TIME OF FIRST OBS   
  2023     6     6    13    11   56.0000000     GPS         TIME OF LAST OBS    
G                                                           SYS / PHASE SHIFT   
R                                                           SYS / PHASE SHIFT   
E                                                           SYS / PHASE SHIFT   
  2 R02 -4 R19  3                                           GLONASS SLOT / FRQ #
 C1C    0.000 C1P    0.000 C2C    0.000 C2P    0.000        GLONASS COD/PHS/BIS 
                                                            END OF HEADER       
> 2023  6  6 12 55 12.0000000  0 26                     
E 7  26293341.552   138172557.132        4170.208          43.000    26293351.244   105872436.949        3195.432          41.250  
E 8  28409830.578                        1859.716          22.000    28409831.023                        1424.871          30.000  
E12  25418393.865   133574564.769        5699.493          33.250    25418400.860   102349401.946        4367.152          34.000  
E24  25330096.789   133110574.128        4248.918          33.750    25330106.208   101993843.939        3255.594          36.500  
E26  25476662.387   133880781.565        1598.358          33.500    25476676.028   102584004.154        1225.023          43.750  
E31  25120202.528   132007534.469        1624.853          38.750    25120210.409   101148671.580        1244.630          29.250  
E33  23347085.957   122689758.492        3511.466          49.500    23347093.225    94009067.391        2690.645          46.500  
G 1  22329146.120   117340474.984        6708.046          30.500    22329152.568                        5225.698          23.000                                                                  
G 2  21534446.992   113164279.159        5192.366          47.000                                                                    21534449.026    88179984.283        4046.001          27.500  
G 8  20204192.162   106174410.430        3448.898          47.750    20204199.200    82733257.570        2687.493          45.500    20204198.435    82732811.566        2687.453          48.500  
G10  21535212.854   113169169.293        1976.352          48.250    21535219.915    88183678.499        1540.136          42.500    21535219.454    88183231.501        1540.022          47.250  
G14  24186412.941   127100452.365        6437.838          28.000    24186435.674    99039368.404        5016.238          30.500    24186420.600    99039348.302        5016.512           4.000  
G16  25063451.110                        -154.269          22.250                                                                                                                                  
G21  20905816.783   109860806.504        4826.827          46.750                                                                    20905820.611    85605845.752        3761.159          31.500  
G23  24022504.645                         340.250          31.000    24022499.400                         265.362          30.000                                                                  
G27  21262942.955   111737152.157        1230.624          47.500    21262949.448    87068843.544         958.897          42.500    21262998.452    87068641.415         958.935          15.500  
G32  23796439.264   125051156.834        6238.828          37.750    23796453.233    97442538.739        4861.600          31.250    23796451.368    97442529.807        4861.414          24.750  
R 2  23785353.406                          21.760          24.000                                                                  
R 3  20673470.890   110666807.810        2985.236          47.000    20673479.824    86074088.138        2321.852          42.500  
R 4  20781826.376   111285758.508        6888.347          47.750    20781833.992    86555623.152        5357.511          44.000  
R 9  22264172.745                         232.709          25.250    22264180.525    92469598.233         180.631          37.000  
R10  21525396.834                        2912.917          28.750                                                                  
R11                                                                  23416572.396    97324208.112        5079.872          38.750  
R18  21614646.648   115380457.666         980.915          47.250    21614657.619    89740970.837         762.954          41.250  
R19  19540304.466   104527447.353        3270.155          41.750    19540313.373    81299163.119        2543.447          44.500  
R20  21614835.583                        6661.344          26.750    21614839.419                        5180.795          29.500  
> 2023  6  6 12 55 13.0000000  0 26                     
E 7  26292547.942   138168387.349        4169.804          43.000    26292557.777   105869241.913        3195.077          41.000  
E 8  28409477.007                        1858.695          23.500    28409477.291                        1424.343          30.750  
E12  25417309.264   133568865.615        5699.121          33.250    25417316.465   102345035.054        4367.106          34.250  
E24  25329288.547   133106325.621        4248.379          33.000    25329297.743   101990588.571        3255.287          36.000  
E26  25476358.277   133879183.061        1598.323          32.500    25476371.904   102582779.346        1225.049          43.750  
E31  25119893.458   132005910.043        1624.648          39.250    25119900.946   101147426.912        1244.437          30.250  
E33  23346417.820   122686247.346        3511.245          49.250    23346425.062    94006377.028        2690.504          46.500  
G 1  22327869.655   117333767.140        6707.884          31.000    22327876.644                        5226.255          22.750                                                                  
G 2  21533458.889   113159087.085        5192.155          46.500                                                                    21533460.950    88175938.502        4045.848          27.000  
G 8  20203535.781   106170961.966        3448.396          47.500    20203543.177    82730570.451        2687.092          45.250    20203542.220    82730124.453        2687.059          48.250  
G10  21534836.822   113167193.412        1975.848          48.250    21534843.753    88182138.832        1539.724          42.250    21534843.471    88181691.849        1539.627          47.000  
G14  24185188.315   127094015.404        6436.843          34.250    24185211.693    99034352.553        5015.585          28.750    24185195.885    99034332.450        5015.723           3.000  
G16  25063480.958                        -152.754          18.000                                                                                                                                  
G21  20904898.285   109855979.986        4826.576          46.250                                                                    20904902.126    85602084.834        3760.963          31.250  
G23  24022440.370                         339.682          30.250    24022435.402                         264.794          29.250                                                                  
G27  21262708.812   111735921.954        1230.171          47.500    21262715.492    87067884.947         958.513          42.250    21262764.457    87067682.783         958.558          15.500  
G32  23795252.728   125044918.284        6238.618          38.500    23795265.825    97437677.592        4861.013          31.500    23795264.233    97437668.596        4861.270          24.500  
R 2  23785351.586                          24.188          19.500                                                                  
R 3  20672913.601   110663823.258        2984.274          46.250    20672922.409    86071766.797        2321.183          42.750  
R 4  20780539.966   111278870.790        6887.530          48.000    20780547.743    86550266.031        5357.089          43.500  
R 9  22264127.635                         230.073          22.750    22264137.436    92469417.846         180.467          36.500  
R10  21524850.330                        2910.638          25.250                                                                  
R11                                                                  23415350.118    97319128.622        5079.368          37.250  
R18  21614462.998   115379477.092         980.680          47.000    21614473.612    89740208.163         762.620          40.500  
R19  19539693.017   104524177.613        3269.679          41.250    19539702.389    81296619.979        2543.194          44.000  
R20                                                                  21613593.504                        5180.884          29.750  
> 2023  6  6 12 55 14.0000000  0 24                     
E 7  26291754.287   138164217.808        4169.430          43.000    26291764.292   105866047.073        3194.587          41.250  
E 8  28409125.538                        1859.175          20.500    28409123.438                        1423.993          31.750  
E12  25416224.918   133563166.348        5699.323          33.750    25416232.039   102340668.096        4366.934          34.500  
E24  25328479.461   133102077.271        4247.892          32.750    25328489.041   101987333.352        3255.018          36.250  
E26  25476053.835   133877584.420        1598.543          34.000    25476067.713   102581554.406        1224.875          43.750  
E31  25119584.402   132004285.765        1623.986          39.500    25119591.849   101146182.337        1244.387          30.250  
E33  23345749.711   122682736.176        3510.966          49.750    23345756.925    94003686.648        2690.237          47.000  
G 1  22326592.985   117327059.308        6707.334          31.750    22326599.115                        5227.695          24.000                                                                  
G 2  21532470.732   113153895.055        5191.815          47.250                                                                    21532472.878    88171892.763        4045.566          27.000  
G 8  20202879.378   106167513.789        3447.847          48.250    20202887.217    82727883.562        2686.662          45.250    20202886.050    82727437.563        2686.633          48.250  
G10  21534461.009   113165217.787        1975.317          49.250    21534467.622    88180599.396        1539.222          43.000    21534467.528    88180152.396        1539.210          47.000  
G14  24183962.398   127087578.889        6435.920          26.750    24183987.049    99029337.025        5015.056          29.500    24183971.564    99029317.026        5014.927           3.500  
G21  20903979.926   109851153.576        4826.219          47.000                                                                    20903983.664    85598324.000        3760.690          31.250  
G23  24022375.281                         339.814          30.500    24022370.849                         264.617          29.250                                                                  
G27  21262474.969   111734691.907        1229.819          48.250    21262481.385    87066926.471         958.309          42.500    21262530.524    87066724.313         958.315          15.000  
G32  23794066.022   125038679.867        6238.239          38.750    23794077.478    97432816.431        4861.053          29.750    23794077.187    97432807.490        4860.953          24.500  
R 3  20672356.106   110660839.343        2983.453          46.250    20672365.155    86069445.969        2320.469          43.000  
R 4  20779253.901   111271983.478        6886.880          48.000    20779261.423    86544909.230        5356.575          44.500  
R 9  22264085.342                         231.174          24.250    22264093.722    92469237.606         180.086          37.500  
R10  21524303.102                        2910.077          27.750                                                                  
R11                                                                  23414128.422    97314049.479        5078.883          38.500  
R18  21614279.174   115378496.470         980.453          47.500    21614289.609    89739445.469         762.633          41.500  
R19  19539082.202   104520908.038        3269.339          42.000    19539091.265    81294076.982        2542.855          44.750  
R20  21612347.676                        6661.424          28.000    21612349.990                        5180.901          30.250  
> 2023  6  6 12 55 15.0000000  0 24                     
E 7  26290961.026   138160048.797        4168.768          42.500    26290970.941   105862852.630        3194.302          41.500  
E 8  28408772.642                        1857.034          22.750    28408769.893                        1423.445          31.000  
E12  25415140.415   133557467.327        5698.820          33.250    25415147.594   102336301.260        4366.898          34.500  
E24  25327670.862   133097829.488        4247.750          32.750    25327680.701   101984078.594        3254.853          36.750  
E26  25475750.539   133875985.943        1598.474          35.000    25475763.464   102580329.595        1224.742          44.000  
E31  25119275.681   132002661.867        1623.764          39.250    25119282.726   101144938.047        1244.559          29.000  
E33  23345081.615   122679225.289        3510.761          49.500    23345088.758    94000996.482        2690.130          47.000  
G 1  22325316.229   117320351.725        6707.415          31.000    22325321.367                        5227.156          25.250                                                                  
G 2  21531482.825   113148703.365        5191.549          47.000                                                                    21531484.886    88167847.293        4045.365          27.000  
G 8  20202223.284   106164066.223        3447.268          48.250    20202231.234    82725197.142        2686.199          45.250    20202229.991    82724751.147        2686.185          48.250  
G10  21534085.415   113163242.711        1974.892          49.000    21534091.648    88179060.382        1538.928          43.250    21534091.698    88178613.372        1538.877          47.250  
G14  24182738.953   127081142.651        6436.784          28.250    24182761.749    99024321.793        5015.332          30.000    24182746.590    99024301.796        5015.619           4.250  
G21  20903061.593   109846327.552        4825.847          47.000                                                                    20903065.291    85594563.461        3760.399          31.500  
G23  24022310.487                         339.442          30.750    24022306.422                         264.249          30.250                                                                  
G27  21262241.094   111733462.318        1229.494          47.750    21262247.072    87065968.349         957.935          42.250    21262296.501    87065766.167         958.042          14.500  
G32  23792879.262   125032441.800        6237.930          38.750    23792890.016    97427955.634        4860.784          30.250    23792890.163    97427946.656        4860.736          24.500  
R 3  20671798.968   110657856.381        2982.575          46.500    20671807.960    86067125.903        2319.791          43.000  
R 4  20777967.728   111265096.865        6886.296          47.500    20777975.357    86539552.992        5356.011          44.750  
R 9  22264042.383                         230.603          24.000    22264050.423    92469057.706         179.768          37.750  
R10  21523756.446                        2909.637          27.500                                                                  
R11  23412918.212   125111396.4691       6529.373          36.000    23412906.703    97308970.852        5078.420          38.500  
R18  21614095.274   115377516.161         980.216          47.500    21614105.526    89738682.993         762.338          40.500  
R19  19538471.347   104517638.941        3269.011          42.000    19538480.138    81291534.357        2542.520          45.000  
R20  21611101.032                        6661.114          28.250    21611105.927                        5180.563          30.000  
> 2023  6  6 12 55 16.0000000  0 24                     
E 7  26290167.849   138155880.370        4168.499          42.000    26290177.832   105859658.640        3194.161          42.000  
E 8  28408419.325                        1858.139          24.000    28408416.685                        1423.542          30.750  
E12  25414055.783   133551768.497        5698.707          33.500    25414063.114   102331934.671        4366.747          34.500  
E24  25326863.251   133093582.298        4247.339          33.000    25326872.728   101980824.304        3254.370          35.750  
E26  25475446.325   133874387.689        1598.364          34.500    25475459.286   102579104.933        1224.844          43.750  
E31  25118966.710   132001038.439        1623.513          38.750    25118973.853   101143694.144        1243.732          29.250  
E33  23344413.554   122675714.724        3510.782          49.750    23344420.738    93998306.579        2690.045          47.250  
G 1  22324039.979   117313644.548        6707.439          30.250    22324045.921                        5225.760          24.000                                                                  
G 2  21530495.048   113143512.049        5191.437          47.000                                                                    21530496.948    88163802.115        4045.264          26.750  
G 8  20201567.395   106160619.288        3446.939          48.500    20201575.243    82722511.230        2685.867          45.250    20201574.044    82722065.222        2685.928          48.500  
G10  21533709.754   113161268.256        1974.468          49.250    21533715.665    88177521.836        1538.530          43.250    21533715.996    88177074.834        1538.551          47.250  
G14  24181514.399   127074706.930        6435.302          26.000    24181537.231    99019306.930        5014.700          30.000    24181522.045    99019286.983        5014.261           3.500  
G21  20902143.359   109841501.949        4825.779          46.500                                                                    20902147.003    85590803.254        3760.338          31.500  
G23  24022244.696                         339.079          32.250    24022241.646                         264.051          29.500                                                                  
G27  21262007.179   111732233.229        1229.154          47.750    21262013.032    87065010.618         957.859          42.250    21262062.537    87064808.454         957.761          14.000  
G32  23791692.623   125026204.159        6237.734          38.750    23791702.679    97423095.083        4861.162          29.000    23791703.185    97423086.155        4860.557          24.500  
R 3  20671241.853   110654874.466        2981.629          46.750    20671251.095    86064806.637        2319.241          43.250  
R 4  20776681.685   111258210.992        6885.891          47.750    20776689.600    86534197.319        5355.662          44.750  
R 9  22263998.991                         227.577          22.000    22264007.057    92468878.179         179.671          37.500  
R10  21523210.582                        2909.444          30.250                                                                  
R11  23411696.721   125104867.613        6528.786          37.250    23411684.501    97303892.818        5078.002          38.250  
R18  21613911.759   115376536.181         980.102          48.000    21613921.706    89737920.765         762.396          40.250  
R19  19537860.233   104514370.390        3268.606          42.250    19537869.108    81288992.139        2542.295          45.000  
R20  21609853.512                        6660.672          27.250    21609862.261                        5180.008          28.250  
> 2023  6  6 12 55 17.0000000  0 24                     
E 7  26289374.659   138151712.376        4167.911          43.000    26289384.812   105856464.943        3193.606          42.500  
E 8  28408062.494                        1859.391          22.500    28408063.359                        1423.245          28.500  
E12  25412971.008   133546069.755        5698.675          34.750    25412978.660   102327568.103        4366.742          34.000  
E24  25326055.595   133089335.641        4246.541          33.750    25326064.961   101977570.288        3253.940          35.250  
E26  25475142.125   133872789.369        1598.432          35.750    25475155.064   102577880.321        1224.773          43.750  
E31  25118657.922   131999415.309        1623.260          38.500    25118665.298   101142450.469        1243.849          30.500  
E33  23343745.570   122672204.331        3510.591          50.000    23343752.767    93995616.788        2690.012          47.500  
G 1  22322763.062   117306937.599        6707.241          30.750    22322771.835                        5226.286          21.500                                                                  
G 2  21529507.428   113138320.959        5191.224          47.500                                                                    21529509.055    88159757.116        4045.112          26.750  
G 8  20200911.672   106157172.827        3446.420          49.000    20200919.233    82719825.680        2685.457          44.500    20200918.178    82719379.671        2685.524          48.500  
G10  21533334.044   113159294.242        1974.170          50.750    21533339.830    88175983.587        1538.335          44.750    21533340.384    88175536.636        1538.327          47.500  
G14  24180288.405                        6434.072          32.000    24180311.492    99014292.056        5015.998          26.500                                                                  
G21  20901225.125   109836676.638        4825.156          47.000                                                                    20901228.769    85587043.284        3759.851          31.250  
G23  24022178.995                         338.892          32.250    24022177.416                         264.416          27.500                                                                  
G27  21261773.134   111731004.474        1228.869          47.250    21261779.144    87064053.135         957.486          42.750    21261828.747    87063850.962         957.767          13.000  
G32  23790505.559   125019966.730        6237.754          38.500    23790514.770    97418234.817        4859.692          32.500    23790516.260    97418225.826        4860.575          24.500  
R 3  20670684.850   110651893.424        2980.865          47.000    20670694.097    86062487.981        2318.744          45.000  
R 4  20775395.789   111251325.733        6885.027          47.000    20775403.861    86528842.097        5355.104          44.250  
R 9  22263954.199                         227.429          19.250    22263963.924    92468698.996         179.050          38.000  
R10  21522664.686                        2908.303          30.250                                                                  
R11  23410474.050                        6528.105          38.250                                                                  
R18  21613728.293   115375556.337         980.167          47.750    21613738.025    89737158.685         762.123          40.750  
R19  19537249.297   104511102.173        3268.261          42.000    19537258.249    81286450.211        2541.947          45.000  
R20  21608607.208                        6659.851          28.250    21608617.871                        5180.350          30.500  
> 2023  6  6 12 55 18.0000000  0 25                     
E 7  26288581.595   138147544.527        4167.425          42.250    26288591.935   105853271.428        3193.063          42.250  
E 8                                                                  28407710.199                        1423.499          24.250  
E12  25411886.809   133540370.865        5698.695          34.250    25411894.296   102323201.407        4366.570          34.500  
E24  25325247.734   133085089.082        4246.378          32.250    25325257.252   101974316.489        3253.656          34.750  
E26  25474838.466   133871190.803        1598.538          33.250    25474850.765   102576655.521        1224.554          44.250  
E31  25118349.125   131997792.256        1622.702          38.500    25118356.344   101141206.789        1243.296          31.250  
E33  23343077.662   122668693.857        3510.147          50.000    23343084.746    93992926.946        2689.569          47.000  
G 1  22321487.027   117300230.563        6706.404          30.250    22321495.679                        5226.627          26.000                                                                  
G 2  21528519.678   113133129.844        5190.715          47.000                                                                    21528521.184    88155712.079        4044.723          27.250  
G 8  20200255.976   106153726.604        3445.758          49.500    20200263.363    82717140.297        2684.958          43.750    20200262.356    82716694.306        2685.005          48.250  
G10  21532958.338   113157320.426        1973.243          51.250    21532963.865    88174445.559        1537.539          42.750    21532964.799    88173998.578        1537.609          48.250  
G14  24179063.547                        6435.164          36.250                                                                                                                                  
G21  20900306.993   109831851.352        4824.930          47.000                                                                    20900310.557    85583283.324        3759.688          31.500  
G23  24022112.126                         341.928          34.000    24022114.330                         264.052          29.750                                                                  
G27  21261539.246   111729775.809        1228.157          47.250    21261545.121    87063095.733         957.110          41.750    21261594.868    87062893.361         957.174          12.750  
G32  23789318.822   125013729.364        6236.875          39.000    23789328.686    97413374.509        4859.609          31.750    23789329.321    97413365.537        4859.904          24.500  
R 2  23785351.430                          19.578          33.500    23785357.478                          15.421          29.250  
R 3  20670128.267   110648912.929        2979.554          49.500    20670137.313    86060169.833        2317.429          45.250  
R 4  20774109.769   111244440.790        6884.406          47.000    20774117.988    86523487.143        5354.476          44.000  
R 9  22263909.169                         230.229          27.750    22263921.332    92468519.877         178.803          37.750  
R10  21522119.112                        2907.490          30.000                                                                  
R11  23409249.393                        6527.771          37.000    23409244.323                        5076.545          26.750  
R18  21613544.554                         979.626          47.500    21613553.956                         761.919          38.500  
R19  19536638.492   104507834.132        3267.519          41.250    19536647.305    81283908.393        2541.347          43.750  
R20  21607359.209                        6660.358          29.750    21607374.380                        5180.434          29.750  
> 2023  6  6 12 55 19.0000000  0 25                     
E 7  26287788.423   138143377.322        4167.316          42.750    26287799.157   105850078.365        3193.179          42.250  
E 8                                                                  28407357.469                        1422.680          27.750  
E12  25410802.293   133534672.230        5698.653          33.000    25410809.919   102318834.958        4366.541          34.500  
E24  25324439.797   133080843.156        4246.095          33.000    25324449.525   101971063.122        3253.502          36.000  
E26  25474535.013   133869592.683        1598.390          36.750    25474546.565   102575430.878        1224.837          43.000  
E31  25118040.382   131996169.718        1622.868          39.250    25118048.308   101139963.521        1243.104          31.500  
E33  23342409.811   122665183.768        3510.334          50.250    23342416.798    93990237.396        2689.740          47.750  
G 1  22320210.875   117293523.928        6707.167          30.500    22320219.098                        5225.243          26.250                                                                  
G 2  21527532.012   113127939.180        5190.930          48.000                                                                    21527533.389    88151667.400        4044.890          27.250  
G 8  20199600.257   106150281.064        3445.611          49.500    20199607.809    82714455.466        2684.882          44.500    20199606.665    82714009.465        2684.895          48.250  
G10  21532582.829   113155347.292        1973.280          51.250    21532588.280    88172908.048        1537.685          44.250    21532589.335    88172461.057        1537.632          48.500  
G14  24177838.918   127055401.446        6434.490          28.750                                                                                                                                  
G21  20899389.036   109827026.553        4825.025          48.250                                                                    20899392.465    85579523.735        3759.769          31.500  
G23  24022047.449   126236712.5051        338.955          31.750    24022050.019                         263.849          29.000                                                                  
G27  21261305.631   111728547.696        1228.360          47.750    21261311.385    87062138.786         957.154          42.500    21261361.051    87061936.293         957.245          14.000  
G32  23788132.259   125007492.524        6237.025          38.500    23788142.543    97408514.609        4860.050          32.750    23788142.530    97408505.668        4860.028          25.000  
R 2  23785345.098                          18.969          33.750    23785354.692                          14.798          29.500  
R 3  20669571.903   110645933.511        2979.399          48.000    20669580.667    86057852.523        2317.242          45.250  
R 4  20772824.124   111237556.663        6884.157          48.250    20772832.710    86518132.835        5354.275          44.500  
R 9  22263866.036                         229.552          26.000    22263878.037    92468341.180         178.770          38.000  
R10  21521574.402                        2906.338          30.250                                                                  
R11                                                                  23408025.149    97288661.320        5076.674          34.000  
R18  21613361.079                         979.688          48.250    21613370.100                         762.022          39.750  
R19  19536027.887   104504566.654        3267.606          42.250    19536036.150    81281367.013        2541.497          44.250  
R20  21606113.026                        6660.220          30.500    21606130.585                        5180.117          31.250  
> 2023  6  6 12 55 20.0000000  0 25                     
E 7  26286995.139   138139210.496        4165.931          42.750    26287006.378   105846885.627        3191.747          42.500  
E 8  28406995.766                        1857.538          23.750    28407005.508                        1422.443          28.250  
E12  25409717.469   133528973.662        5698.113          33.000    25409725.586   102314468.513        4366.078          34.250  
E24  25323631.963   133076597.669        4244.602          34.250    25323641.690   101967810.048        3252.463          36.000  
E26  25474230.983   133867994.445        1597.428          37.000    25474242.307   102574206.280        1224.174          43.250  
E31  25117731.599   131994547.436        1621.768          38.750    25117740.293   101138720.438        1242.129          30.750  
E33  23341741.912   122661673.803        3509.464          50.250    23341748.755    93987547.941        2689.094          47.750  
G 1  22318934.920   117286817.393        6706.038          30.750    22318943.702                        5225.674          27.750                                                                  
G 2  21526544.289   113122748.684        5189.869          47.500                                                                    21526545.603    88147622.851        4044.046          27.250  
G 8  20198944.637   106146835.979        3444.370          49.750    20198952.337    82711770.976        2683.966          44.750    20198951.062    82711324.981        2683.927          48.500  
G10  21532207.446   113153374.528        1972.065          51.500    21532212.945    88171370.827        1536.726          44.250    21532213.938    88170923.830        1536.680          49.000  
G14  24176614.999   127048967.017        6433.711          28.250                                                                                                                                  
G21  20898471.088   109822202.024        4823.813          47.750                                                                    20898474.383    85575764.360        3758.813          31.500  
G23  24021982.963   126236373.870         337.268          31.000    24021986.138                         263.622          30.000                                                                  
G27  21261072.096   111727319.900        1227.152          47.750    21261077.729    87061182.049         956.244          43.000    21261127.244    87060979.458         956.313          15.250  
G32  23786945.352   125001255.865        6236.402          38.250    23786955.855    97403654.894        4859.480          32.000    23786955.784    97403645.930        4859.549          25.500  
R 2                                                                  23785353.198                          14.534          29.500  
R 3  20669015.388   110642954.823        2977.947          48.000    20669024.080    86055535.782        2316.136          45.500  
R 4  20771538.563   111230673.113        6882.896          47.750    20771547.543    86512778.980        5353.193          45.000  
R 9  22263823.131                         229.697          26.500    22263835.190    92468162.763         177.889          38.000  
R10  21521029.785                        2905.743          31.500                                                                  
R11                                                                  23406803.175    97283585.156        5074.861          34.250  
R18  21613177.621                         978.870          48.250    21613186.107                         761.293          39.500  
R19  19535417.350   104501299.508        3266.510          42.250    19535425.049    81278825.892        2540.627          44.750  
R20  21604867.845                        6660.034          30.500    21604885.144                        5180.132          32.750  
> 2023  6  6 12 55 21.0000000  0 25                     
E 7  26286201.918   138135044.347        4165.890          42.500    26286213.863   105843693.355        3192.273          42.500  
E 8  28406642.423                        1855.690          25.500    28406651.811                        1421.713          26.000  
E12  25408633.248   133523275.461        5698.112          33.250    25408641.102   102310102.423        4365.900          33.250  
E24  25322824.879   133072352.804        4244.822          36.500    25322834.048   101964557.573        3252.240          36.000  
E26  25473927.328   133866396.426        1598.229          36.250    25473938.304   102572981.884        1224.431          42.750  
E31  25117422.569   131992925.740        1621.636          38.500    25117432.261   101137477.853        1242.129          33.000  
E33  23341074.084   122658164.268        3509.522          50.250    23341080.856    93984858.815        2689.161          47.250  
G 1  22317659.014   117280111.321        6706.437          31.750    22317666.378                        5225.006          25.750                                                                  
G 2  21525556.749   113117558.697        5190.005          47.250                                                                    21525557.867    88143578.708        4044.160          27.250  
G 8  20198289.280   106143391.602        3444.268          49.750    20198296.891    82709087.043        2683.776          44.500    20198295.607    82708641.045        2683.853          48.500  
G10  21531832.084   113151402.465        1971.980          52.000    21531837.781    88169834.167        1536.448          44.000    21531838.675    88169387.153        1536.620          49.500  
G14  24175391.330   127042533.542        6433.270          33.250                                                                                                                                  
G21  20897553.440   109817378.000        4823.963          47.500                                                                    20897556.386    85572005.374        3758.949          31.500  
G23  24021918.281   126236035.497         337.613          31.250    24021922.082                         263.413          30.000                                                                  
G27  21260838.552   111726092.688        1227.076          48.000    21260844.279    87060225.773         956.238          42.750    21260893.660    87060023.123         956.205          15.750  
G32  23785758.489   124995019.730        6236.036          39.000    23785770.236    97398795.574        4859.416          31.250    23785769.100    97398786.594        4859.263          25.750  
R 2                                                                  23785348.749                          14.113          29.000  
R 3  20668459.480   110639977.254        2977.283          50.000    20668467.761    86053219.863        2315.530          45.500  
R 4  20770253.365   111223790.449        6882.421          47.750    20770262.376    86507425.786        5353.020          45.000  
R 9  22263783.177                         228.865          26.000    22263792.477    92467984.778         177.783          38.000  
R10  21520484.676                        2904.621          30.250                                                                  
R11                                                                  23405584.390    97278509.531        5075.488          33.500  
R18  21612994.347   115371638.627         978.939          47.750    21613003.110    89734111.552         761.403          40.750  
R19  19534806.803   104498032.997        3266.468          42.250    19534814.342    81276285.275        2540.464          44.250  
R20  21603623.374                        6659.728          31.000    21603639.806                        5179.798          32.500  
> 2023  6  6 12 55 22.0000000  0 25                     
E 7  26285408.675   138130878.540        4165.705          41.750    26285421.242   105840501.397        3191.864          41.250  
E 8  28406290.310                        1855.266          25.250    28406298.034                        1421.824          26.500  
E12  25407549.250   133517577.278        5697.971          33.750    25407556.554   102305736.236        4366.162          32.250  
E24  25322017.671   133068108.355        4244.228          33.250    25322026.562   101961305.324        3252.283          36.000  
E26  25473624.005   133864798.514        1597.956          39.500    25473634.314   102571757.480        1224.408          43.000  
E31  25117113.710   131991304.258        1621.221          38.750    25117124.171   101136235.383        1242.179          32.750  
E33  23340406.350   122654654.841        3509.257          50.250    23340413.006    93982169.783        2688.969          47.250  
G 1  22316382.942   117273405.405        6705.751          29.250    22316389.766                        5224.705          23.500                                                                  
G 2  21524569.272   113112368.831        5189.654          47.500                                                                    21524570.188    88139534.655        4043.871          27.000  
G 8  20197634.009   106139947.636        3443.682          50.250    20197641.507    82706403.431        2683.408          44.250    20197640.228    82705957.434        2683.385          48.500  
G10  21531456.669   113149430.805        1971.397          51.750    21531462.679    88168297.797        1536.124          44.250    21531463.488    88167850.789        1536.158          49.750  
G14  24174168.587   127036100.059        6433.337          36.500    24174174.758    98989223.591        5013.079          29.250                                                                  
G21  20896635.724   109812554.174        4823.625          48.000                                                                    20896638.456    85568246.549        3758.659          31.500  
G23  24021852.732   126235697.378         337.612          32.000    24021856.912                         263.428          29.750                                                                  
G27  21260605.017   111724865.766        1226.715          47.750    21260610.825    87059269.738         955.868          42.500    21260660.227    87059067.051         955.925          15.250  
G32  23784571.613   124988783.826        6235.539          38.750    23784583.834    97393936.438        4858.974          31.000    23784582.475    97393927.454        4858.864          26.000  
R 2                                                                  23785343.911                          13.705          30.500  
R 3  20667903.501   110637000.479        2976.313          49.500    20667911.688    86050904.598        2314.936          45.500  
R 4  20768968.248   111216908.290        6881.832          47.500    20768977.201    86502073.001        5352.497          45.000  
R 9                                                                  22263749.988    92467807.043         177.619          38.000  
R10  21519940.332                        2903.816          32.250                                                                  
R11                                                                  23404361.732    97273434.417        5074.789          37.250  
R18  21612810.957   115370659.776         978.719          47.750    21612819.943    89733350.206         761.327          40.250  
R19  19534196.319   104494766.786        3265.938          42.250    19534203.701    81273744.883        2540.217          44.000  
R20  21602377.911                        6659.628          30.000    21602394.204                        5179.745          32.250  
> 2023  6  6 12 55 23.0000000  0 25                     
E 7  26284615.771   138126713.418        4165.189          42.000    26284628.781   105837309.935        3191.425          41.500  
E 8  28405937.771                        1856.861          22.000    28405944.418                        1421.675          25.500  
E12  25406465.034   133511879.386        5698.571          33.750    25406472.119   102301370.345        4366.193          32.250  
E24  25321210.333   133063864.565        4244.194          34.000    25321219.005   101958053.597        3251.936          37.250  
E26  25473320.033   133863200.835        1598.257          38.250    25473330.279   102570533.266        1224.367          43.250  
E31  25116805.038   131989683.288        1621.199          38.250    25116815.593   101134993.334        1242.461          29.000  
E33  23339738.625   122651145.795        3509.416          50.000    23339745.290    93979481.026        2689.051          47.250  
G 1  22315107.014   117266699.902        6705.498          30.500    22315114.723                        5224.872          25.250                                                                  
G 2  21523581.942   113107179.433        5189.823          48.000                                                                    21523582.630    88135490.977        4044.015          27.000  
G 8  20196978.804   106136504.377        3443.557          50.000    20196986.312    82703720.369        2683.213          44.250    20196984.984    82703274.372        2683.294          48.500  
G10  21531081.317   113147459.808        1971.208          51.500    21531087.764    88166761.936        1536.107          44.500    21531088.435    88166314.944        1536.002          50.000  
G14  24172945.728   127029667.237        6433.348          37.250    24172949.064    98984210.969        5013.291          29.250                                                                  
G21  20895718.156   109807730.860        4823.587          48.250                                                                    20895720.642    85564488.129        3758.620          31.500  
G23  24021787.312   126235359.529         337.636          31.000    24021793.089                         262.974          31.250                                                                  
G27  21260371.638   111723639.410        1226.675          47.750    21260377.679    87058314.135         955.840          42.750    21260426.737    87058111.398         955.890          15.750  
G32  23783384.259   124982548.411        6235.505          38.750    23783397.208    97389077.640        4859.244          31.750    23783395.934    97389068.697        4858.820          25.750  
R 2                                                                  23785339.028                          13.184          30.250  
R 3  20667347.817   110634024.832        2975.711          49.500    20667355.771    86048590.195        2314.506          45.500  
R 4  20767683.247   111210026.920        6881.658          47.750    20767692.253    86496720.835        5352.241          45.250  
R 9  22263702.276                         227.646          27.000    22263707.709    92467629.771         177.423          38.250  
R10  21519395.823                        2902.925          32.750                                                                  
R11                                                                  23403138.475                        5074.804          36.500  
R18  21612627.567   115369681.291         978.925          47.250    21612636.996    89732589.171         761.386          41.250  
R19  19533585.916   104491501.165        3265.993          42.250    19533593.280    81271204.959        2540.215          44.250  
R20  21601133.463                        6659.035          30.250    21601149.090                        5179.333          32.500  
> 2023  6  6 12 55 24.0000000  0 23                     
E 7  26283823.225   138122548.648        4164.477          42.500    26283836.230   105834118.743        3191.014          41.750  
E 8  28405585.850                        1856.044          22.500    28405590.798                        1421.357          26.500  
E12  25405380.482   133506181.594        5697.604          33.750    25405387.620   102297004.503        4365.643          32.250  
E24  25320401.349   133059621.301        4243.173          30.250    25320411.618   101954802.181        3251.339          37.500  
E26  25473015.569   133861603.133        1597.625          37.000    25473026.258   102569309.047        1224.206          43.000  
E31  25116496.465   131988062.640        1620.511          38.750    25116506.497   101133751.525        1241.969          29.750  
E33  23339070.891   122647636.877        3508.767          50.500    23339077.524    93976792.397        2688.501          47.000  
G 1  22313831.077   117259994.522        6705.449          32.000    22313838.973                        5225.000          23.000                                                                  
G 2  21522594.447   113101990.231        5189.055          47.750                                                                    21522595.099    88131447.439        4043.449          27.000  
G 8  20196323.761   106133061.584        3442.539          50.000    20196331.295    82701037.687        2682.514          44.500    20196329.824    82700591.677        2682.492          48.750  
G10  21530706.116   113145489.240        1970.324          51.500    21530712.895    88165226.429        1535.342          44.250    21530713.463    88164779.434        1535.325          50.000  
G14  24171721.751   127023234.483        6432.315          34.750    24171724.349                        5011.979          19.500                                                                  
G21  20894800.414   109802907.786        4822.956          48.750                                                                    20894802.877    85560729.902        3758.137          31.500  
G23  24021723.332   126235021.861         337.289          32.250    24021728.429                         263.095          32.250                                                                  
G27  21260138.305   111722413.341        1225.855          48.000    21260144.417    87057358.770         955.265          42.500    21260193.108    87057155.972         955.235          16.500  
G32  23782198.134   124976313.202        6235.042          39.250    23782211.151    97384219.066        4858.478          31.750    23782209.425    97384210.100        4858.464          26.000  
R 3  20666792.222   110631049.998        2974.406          49.500    20666799.922    86046276.460        2313.335          45.500  
R 4  20766398.420   111203146.063        6880.451          48.000    20766407.592    86491369.072        5351.496          45.000  
R 9  22263661.491                         227.458          28.500    22263665.054    92467452.722         176.801          38.250  
R10  21518851.532                        2902.155          29.250                                                                  
R18  21612444.087   115368702.989         978.180          47.750    21612454.093    89731828.239         760.797          41.250  
R19  19532976.018   104488235.888        3265.010          42.000    19532982.908    81268665.308        2539.500          43.750  
R20  21599887.495                        6659.203          30.250    21599903.743                        5179.375          33.500  
> 2023  6  6 12 55 25.0000000  0 23                     
E 7  26283030.822   138118384.237        4164.240          42.750    26283043.684   105830927.819        3190.672          42.500  
E 8  28405231.819                        1854.091          25.250    28405237.781                        1420.963          26.250  
E12  25404295.693   133500483.780        5697.714          33.500    25404302.903   102292638.570        4365.998          32.000  
E24  25319592.594   133055378.157        4242.919          30.750    25319604.056   101951550.953        3250.928          37.000  
E26  25472711.199   133860005.357        1597.752          37.500    25472722.076   102568084.779        1224.009          42.750  
E31  25116188.160   131986442.179        1620.178          38.250    25116197.673   101132509.849        1241.584          29.500  
E33  23338403.108   122644128.050        3508.651          50.500    23338409.786    93974103.796        2688.419          47.250  
G 1  22312554.858   117253289.232        6705.156          32.750    22312562.705                        5225.729          23.250                                                                  
G 2  21521606.822   113096801.144        5188.806          48.000                                                                    21521607.613    88127403.988        4043.224          27.500  
G 8  20195668.690   106129619.195        3442.037          49.750    20195676.247    82698355.300        2682.073          44.500    20195674.749    82697909.302        2682.112          48.750  
G10  21530331.059   113143519.002        1969.865          51.500    21530338.039    88163691.192        1535.017          44.500    21530338.548    88163244.181        1534.953          50.250  
G14  24170496.567   127016802.464        6431.500          29.000    24170502.219                        5011.251          22.750                                                                  
G21  20893882.810   109798084.901        4822.659          49.000                                                                    20893885.130    85556971.816        3757.904          31.500  
G23  24021659.741   126234684.258         337.388          34.750    24021664.154                         262.780          32.000                                                                  
G27  21259904.890   111721187.546        1225.535          48.250    21259911.226    87056403.591         954.960          43.000    21259959.520    87056200.808         954.949          16.250  
G32  23781011.880   124970078.191        6234.773          39.250    23781025.160    97379360.634        4857.654          30.750    23781022.969    97379351.655        4858.266          26.000  
R 3  20666236.578   110628075.916        2973.473          49.250    20666244.197    86043963.271        2312.685          45.500  
R 4  20765113.548   111196265.725        6879.811          47.000    20765122.881    86486017.701        5351.033          45.250  
R 9                                                                  22263622.985    92467275.897         176.698          38.750  
R10  21518306.401                        2901.312          30.500                                                                  
R18  21612260.845   115367724.760         978.020          48.000    21612271.427    89731067.420         760.739          42.000  
R19  19532365.888   104484970.884        3264.735          42.000    19532372.460    81266125.866        2539.175          44.250  
R20  21598642.922                        6659.307          30.500    21598658.589                        5179.416          33.750  
> 2023  6  6 12 55 26.0000000  0 24                     
E 7  26282238.665   138114220.027        4164.733          43.250    26282251.094   105827737.089        3190.928          42.750  
E 8  28404880.336                        1854.757          26.500    28404884.532                        1420.414          26.000  
E12  25403211.839   133494785.848        5698.634          34.250    25403218.508   102288272.655        4366.263          32.500  
E24  25318785.131   133051135.391        4243.287          31.000    25318796.325   101948299.989        3251.537          36.250  
E26  25472406.677   133858407.427        1598.534          36.000    25472417.840   102566860.415        1224.824          43.750  
E31  25115879.846   131984821.801        1620.641          38.000    25115889.547   101131268.216        1241.891          28.000  
E33  23337735.450   122640619.208        3509.403          50.750    23337742.025    93971415.211        2688.967          47.500  
G 1  22311279.717   117246583.983        6705.860          32.250    22311284.885                        5223.560          21.000                                                                  
G 2  21520619.322   113091612.104        5189.507          48.250                                                                    21520620.171    88123360.583        4043.771          27.500  
G 8  20195013.696   106126177.128        3442.476          49.250    20195021.168    82695673.168        2682.444          45.000    20195019.737    82695227.167        2682.451          48.750  
G10  21529956.171   113141549.028        1970.396          51.500    21529962.981    88162156.144        1535.324          44.250    21529963.697    88161709.138        1535.372          50.250  
G14  24169273.551   127010370.379        6432.832          30.250    24169278.680                        5011.967          25.500                                                                  
G21  20892964.956   109793262.103        4823.264          49.000                                                                    20892967.415    85553213.796        3758.384          31.500  
G23  24021595.403   126234346.567         338.358          32.250    24021599.919                         263.109          32.500                                                                  
G27  21259671.565   111719961.879        1226.167          47.250    21259678.138    87055448.536         955.359          43.250    21259725.936    87055245.744         955.460          17.500  
G32  23779825.679   124963843.299        6235.191          39.500    23779837.417    97374502.275        4858.675          29.000    23779836.505    97374493.294        4858.576          26.000  
R 3  20665681.216   110625102.477        2973.672          49.500    20665688.804    86041650.605        2312.840          46.000  
R 4  20763828.771   111189385.868        6880.071          46.750    20763838.005    86480666.686        5351.267          45.000  
R 9  22263580.841                         226.847          24.500    22263580.518    92467099.228         177.065          38.750  
R10  21517762.334                        2900.817          31.000                                                                  
R11                                                                  23399478.273                        5073.431          33.500  
R18  21612077.660                         978.750          47.500    21612088.131                         761.188          41.750  
R19  19531755.507   104481706.064        3265.233          41.750    19531761.990    81263586.564        2539.641          44.250  
R20  21597399.319                        6659.112          29.250    21597413.224                        5179.881          33.250  
> 2023  6  6 12 55 27.0000000  0 24                     
E 7  26281446.428   138110056.256        4163.447          42.250    26281458.633   105824546.658        3190.182          42.500  
E 8  28404529.193                        1854.252          29.500    28404531.529                        1420.706          27.500  
E12  25402127.565   133489088.006        5697.599          34.500    25402134.609   102283906.807        4365.806          32.500  
E24  25317978.808   133046892.967        4240.928          30.500    25317989.045   101945049.355        3250.646          36.250  
E26  25472102.061   133856809.575        1597.802          36.000    25472113.792   102565636.024        1224.408          43.500  
E31  25115571.809   131983201.752        1619.902          37.750    25115581.819   101130026.919        1241.264          27.750  
E33  23337067.783   122637110.509        3508.495          50.000    23337074.318    93968726.742        2688.366          46.750  
G 1  22310004.155   117239878.910        6705.391          30.250                                                                                                                                  
G 2  21519631.925   113086423.287        5188.476          48.000                                                                    21519632.748    88119317.347        4042.965          28.000  
G 8  20194358.836   106122735.535        3441.234          49.000    20194366.285    82692991.383        2681.482          45.750    20194364.814    82692545.403        2681.488          48.750  
G10  21529581.275   113139579.548        1969.193          51.250    21529588.376    88160621.479        1534.409          44.000    21529588.935    88160174.477        1534.444          50.250  
G14  24168050.026   127003938.488        6431.622          29.250    24168053.983                        5015.036          23.500                                                                  
G21  20892047.097   109788439.604        4822.277          48.000                                                                    20892049.726    85549456.006        3757.614          31.500  
G23  24021531.352   126234009.092         337.457          33.250    24021536.735                         262.937          32.500                                                                  
G27  21259438.165   111718736.567        1225.129          46.750    21259444.930    87054493.744         954.586          42.750    21259492.392    87054290.953         954.667          18.000  
G32  23778639.697   124957608.604        6234.541          40.000    23778650.639    97369644.109        4858.083          31.000    23778650.076    97369635.095        4858.080          25.750  
R 3  20665125.930   110622129.887        2972.264          48.750    20665133.513    86039338.604        2311.526          45.500  
R 4  20762544.230   111182506.616        6878.805          47.250    20762553.169    86475316.178        5350.209          45.250  
R 9                                                                  22263537.832    92466922.769         176.343          38.750  
R10  21517218.737                        2900.187          31.000                                                                  
R11  23398235.008                        6522.218          35.000    23398256.227                        5072.166          34.750  
R18  21611894.574                         977.619          47.500    21611904.745                         760.531          40.750  
R19  19531145.170   104478441.590        3264.222          41.750    19531151.783    81261047.536        2538.823          44.000  
R20  21596155.939                        6659.102          28.250    21596167.430    89821210.0271       5179.106          33.000  
> 2023  6  6 12 55 28.0000000  0 24                     
E 7  26280653.802   138105893.095        4163.160          40.000    26280666.543   105821356.723        3190.177          42.750  
E 8  28404177.656                        1853.777          26.250    28404178.431                        1420.328          29.000  
E12  25401043.420   133483390.473        5697.885          34.250    25401050.580   102279541.165        4365.654          32.500  
E24  25317169.949   133042651.165        4241.940          24.250    25317182.226   101941799.167        3250.525          37.250  
E26  25471797.763   133855211.983        1598.136          35.750    25471809.874   102564411.846        1224.511          43.250  
E31  25115263.352   131981582.200        1619.689          36.500    25115273.496   101128786.030        1240.634          27.250  
E33  23336400.129   122633602.199        3508.627          49.750    23336406.749    93966038.552        2688.424          46.750  
G 1  22308726.876   117233174.236        6704.729          29.750                                                                                                                                  
G 2  21518644.591   113081234.869        5188.672          47.750                                                                    21518645.364    88115274.441        4043.106          27.750  
G 8  20193704.208   106119294.600        3441.096          49.000    20193711.380    82690310.147        2681.287          45.500    20193710.021    82689864.147        2681.382          49.000  
G10  21529206.562   113137610.668        1969.028          49.500    21529213.609    88159087.316        1534.319          44.000    21529214.293    88158640.287        1534.301          50.000  
G14  24166824.716   126997507.397        6431.443          26.750    24166830.726                        5010.931          24.750                                                                  
G21  20891129.435   109783617.558        4822.254          48.000                                                                    20891132.109    85545698.568        3757.603          31.500  
G23  24021467.515   126233671.900         337.622          33.000    24021472.889                         262.576          33.500                                                                  
G27  21259204.697   111717511.791        1224.962          46.750    21259212.146    87053539.367         954.504          42.500    21259258.790    87053336.569         954.528          18.750  
G32  23777453.533   124951374.423        6234.409          40.000    23777463.812    97364786.293        4858.276          30.750    23777463.754    97364777.307        4857.954          26.000  
R 3  20664571.172   110619158.298        2971.476          48.000    20664578.487    86037027.408        2311.179          44.250  
R 4  20761259.774   111175628.169        6878.482          47.250    20761268.602    86469966.272        5349.995          44.250  
R 9                                                                  22263495.606                         175.984          38.500  
R10  21516676.924                        2899.236          27.500                                                                  
R11  23397013.576                        6521.447          35.750    23397033.681                        5072.431          35.750  
R18  21611711.336                         977.987          47.000    21611721.605                         760.625          40.750  
R19  19530535.035   104475177.725        3264.095          42.250    19530541.756    81258508.958        2538.805          44.000  
R20  21594912.287                        6658.916          27.250    21594921.886    89816030.851        5179.606          33.000  
> 2023  6  6 12 55 29.0000000  0 24                     
E 7  26279861.694   138101730.631        4162.464          40.500    26279874.543   105818167.305        3189.302          42.500  
E 8  28403825.408                        1853.789          23.000    28403825.178                        1420.172          28.500  
E12  25399959.199   133477693.266        5697.340          34.000    25399966.748   102275175.770        4365.565          32.000  
E24  25316363.219   133038410.043        4240.989          27.250    25316375.371   101938549.519        3249.586          36.750  
E26  25471494.077   133853614.627        1597.440          37.250    25471505.938   102563187.913        1224.147          42.500  
E31  25114955.106   131979963.240        1618.980          37.500    25114964.731   101127545.491        1240.690          28.500  
E33  23335732.565   122630094.323        3507.981          50.000    23335739.288    93963350.707        2687.961          46.500  
G 1  22307450.398   117226470.026        6704.267          30.000                                                                                                                                  
G 2  21517657.494   113076046.962        5187.954          47.500                                                                    21517658.084    88111231.926        4042.547          27.750  
G 8  20193049.679   106115854.418        3440.129          49.000    20193056.632    82687629.499        2680.502          45.500    20193055.375    82687183.484        2680.616          49.000  
G10  21528831.979   113135642.525        1968.129          49.500    21528839.079    88157553.685        1533.654          44.000    21528839.795    88157106.678        1533.605          49.750  
G14  24165600.529   126991076.844        6430.765          30.250    24165607.733                        5009.616          25.750                                                                  
G21  20890211.778   109778796.077        4821.544          47.500                                                                    20890214.599    85541941.571        3757.044          31.500  
G23  24021403.307   126233335.178         336.981          32.750    24021409.151                         262.262          32.750                                                                  
G27  21258971.506   111716287.634        1224.197          46.750    21258979.036    87052585.465         953.836          42.500    21259025.277    87052382.674         953.943          19.250  
G32  23776267.247   124945140.771        6233.680          40.000    23776277.182    97359928.922        4857.598          31.000    23776277.545    97359919.933        4857.395          26.250  
R 3  20664016.704   110616187.883        2970.128          48.000    20664024.064    86034717.092        2310.209          44.250  
R 4  20759975.462   111168750.563        6877.547          47.000    20759983.936    86464617.035        5349.206          44.250  
R 9                                                                  22263453.779    92466571.285         175.638          38.250  
R10  21516132.424                        2897.458          28.250                                                                  
R11  23395793.346   125020047.283        6520.717          37.250    23395812.061    97237889.5501       5071.545          36.000  
R18  21611528.178   115363813.515         977.408          47.500    21611539.060    89728025.311         760.117          40.750  
R19  19529924.833   104471914.469        3263.274          42.500    19529931.844    81255970.877        2538.122          43.750  
R20  21593669.078                        6658.145          27.500    21593676.575    89810851.975        5179.002          32.500  
> 2023  6  6 12 55 30.0000000  0 24                     
E 7  26279069.640   138097568.820        4161.337          41.000    26279082.506   105814978.364        3188.659          42.500  
E 8  28403470.956                        1853.033          22.500    28403472.344                        1419.923          29.750  
E12  25398875.277   133471996.345        5696.651          34.250    25398882.550   102270810.616        4365.077          31.500  
E24  25315556.686   133034169.717        4239.477          27.500    25315568.770   101935300.360        3248.931          36.750  
E26  25471191.000   133852017.546        1596.927          37.750    25471202.055   102561964.159        1223.539          42.250  
E31  25114646.975   131978344.788        1618.075          37.750    25114656.564   101126305.386        1239.740          29.750  
E33  23335065.091   122626586.816        3507.218          49.750    23335071.925    93960663.132        2687.350          46.500  
G 1  22306174.787   117219766.269        6703.540          30.750    22306175.882                        5224.307          23.250                                                                  
G 2  21516670.441   113070859.492        5187.129          47.000                                                                    21516670.946    88107189.755        4041.923          27.500  
G 8  20192395.306   106112414.922        3439.084          49.500    20192401.973    82684949.369        2679.789          45.250    20192400.855    82684503.360        2679.805          49.000  
G10  21528457.588   113133675.043        1967.066          49.250    21528464.514    88156020.572        1532.844          43.750    21528465.422    88155573.577        1532.780          49.250  
G14  24164377.232   126984646.827        6429.684          29.750    24164386.336                        5010.034          26.500                                                                  
G21  20889294.196   109773975.067        4820.614          47.000                                                                    20889297.174    85538184.939        3756.324          31.500  
G23  24021339.555   126232998.785         336.114          34.250    24021345.278                         261.995          32.250                                                                  
G27  21258738.579   111715063.992        1223.238          46.500    21258746.118    87051631.978         953.146          42.250    21258791.903    87051429.183         953.164          18.750  
G32  23775080.983   124938907.595        6232.727          40.000    23775090.074    97355071.879        4856.994          29.750    23775091.420    97355062.924        4856.670          26.500  
R 3  20663462.241   110613218.539        2968.695          47.250    20663469.462    86032407.607        2308.924          43.750  
R 4  20758691.364   111161873.723        6876.314          47.000    20758699.713    86459268.394        5348.304          44.000  
R 9                                                                  22263411.670    92466396.221         174.816          38.500  
R10  21515588.388                        2896.740          30.500                                                                  
R11  23394573.210   125013527.425        6519.324          38.000    23394591.657    97232818.498        5070.738          37.000  
R18  21611345.074   115362836.634         976.570          47.250    21611356.489    89727265.518         759.503          42.000  
R19  19529315.011   104468651.805        3262.254          42.500    19529322.022    81253433.239        2537.405          43.750  
R20  21592424.902                        6658.233          29.000    21592432.029    89805673.375        5178.513          32.750  
> 2023  6  6 12 55 31.0000000  0 24                     
E 7  26278277.809   138093407.543        4161.479          41.000    26278290.618   105811789.869        3188.550          42.750  
E 8  28403117.237                        1853.101          26.750    28403119.377                        1419.180          29.250  
E12  25397791.119   133466299.667        5697.011          34.750    25397798.410   102266445.648        4365.097          32.250  
E24  25314750.207   133029929.850        4240.114          29.750    25314762.210   101932051.632        3248.826          36.250  
E26  25470887.475   133850420.582        1597.546          38.000    25470898.182   102560740.531        1223.943          42.250  
E31  25114339.099   131976726.770        1618.347          38.250    25114348.903   101125065.646        1239.611          30.250  
E33  23334397.746   122623079.641        3507.486          50.000    23334404.558    93957975.806        2687.560          46.500  
G 1  22304899.020   117213062.795        6703.461          31.250    22304902.717                        5223.448          26.250                                                                  
G 2  21515683.357   113065672.385        5187.377          46.750                                                                    21515683.836    88103147.856        4042.113          27.250  
G 8  20191740.978   106108976.056        3439.034          49.250    20191747.242    82682269.724        2679.800          45.250    20191746.455    82681823.726        2679.768          49.250  
G10  21528083.483   113131708.125        1967.144          49.750    21528090.181    88154487.915        1532.821          44.250    21528091.142    88154040.912        1532.839          49.250  
G14  24163153.192   126978217.449        6429.717          27.500    24163164.443                        5009.889          28.000                                                                  
G21  20888376.803   109769154.479        4820.889          46.750                                                                    20888379.852    85534428.637        3756.534          31.250  
G23  24021275.740   126232662.753         336.127          35.000    24021281.057                         261.768          32.250                                                                  
G27  21258505.867   111713840.860        1223.366          46.750    21258513.285    87050678.900         953.150          42.250    21258558.587    87050476.064         953.417          17.500  
G32  23773895.064   124932674.815        6232.979          40.750    23773903.735    97350215.184        4857.226          29.750    23773905.371    97350206.214        4856.876          26.500  
R 3  20662907.822   110610250.218        2968.302          47.250    20662915.459    86030098.900        2308.714          45.000  
R 4  20757407.409   111154997.633        6876.166          47.000    20757415.436    86453920.314        5348.146          44.500  
R 9  22263386.088                         223.923          24.750    22263369.873    92466221.557         174.897          39.250  
R10  21515044.156                        2895.714          31.500                                                                  
R11  23393353.817   125007008.280        6519.238          36.750    23393370.944    97227748.061        5070.337          37.000  
R18  21611162.127   115361860.064         976.938          47.500    21611173.702    89726505.973         759.765          42.500  
R19  19528705.301   104465389.645        3262.371          42.500    19528712.267    81250896.011        2537.430          44.500  
R20                                                                  21591186.083    89800494.968        5178.520          33.000  
> 2023  6  6 12 55 32.0000000  0 25                     
E 7  26277485.948   138089246.398        4161.092          41.000    26277498.774   105808601.467        3188.521          42.250  
E 8  28402764.449                        1852.212          25.500    28402766.306                        1419.385          28.750  
E12  25396707.475   133460602.809        5697.018          35.000    25396714.743   102262080.527        4365.215          32.250  
E24  25313943.973   133025690.164        4239.571          32.000    25313955.485   101928803.009        3248.564          36.250  
E26  25470584.111   133848823.425        1597.561          38.000    25470594.290   102559516.719        1224.034          42.750  
E31  25114031.304   131975108.782        1618.227          38.000    25114040.974   101123825.912        1239.355          30.250  
E33  23333730.455   122619572.324        3507.553          50.000    23333737.124    93955288.395        2687.524          46.750  
G 1  22303623.610   117206359.253        6703.207          29.750    22303629.673                        5222.719          25.500                                                                  
G 2  21514696.278   113060485.221        5187.345          46.750                                                                    21514696.711    88099105.906        4042.092          27.000  
G 8  20191086.610   106105537.366        3438.745          49.000    20191092.789    82679590.220        2679.575          45.000    20191092.092    82679144.226        2679.542          49.250  
G10  21527709.593   113129741.369        1966.828          50.250    21527716.116    88152955.386        1532.545          44.500    21527716.899    88152508.375        1532.592          49.250  
G14  24161927.641                        6430.497          20.500    24161942.733                        5009.530          28.250                                                                  
G21  20887459.235   109764333.883        4820.782          46.500                                                                    20887462.534    85530672.333        3756.449          31.250  
G23  24021211.707   126232326.556         336.507          34.500    24021217.184                         262.005          31.750                                                                  
G27  21258273.195   111712617.784        1223.095          47.000    21258280.457    87049725.852         953.079          42.250    21258325.790    87049523.017         953.031          16.500  
G30  25652977.893                        1831.052          23.000                                                                                                                                  
G32  23772708.980   124926442.002        6232.967          40.750    23772719.081    97345358.501        4856.542          31.250    23772719.318    97345349.474        4856.845          26.750  
R 3  20662353.538   110607282.433        2967.676          47.750    20662360.915    86027790.613        2308.160          45.750  
R 4  20756123.508   111148121.871        6875.773          47.250    20756131.409    86448572.496        5347.829          45.250  
R 9  22263343.648                         224.716          25.500    22263327.800    92466046.942         174.778          39.000  
R10  21514499.973                        2895.535          32.750                                                                  
R11  23392134.369   125000489.417        6518.821          38.500    23392150.321    97222677.875        5070.093          35.750  
R18  21610979.367   115360883.384         976.900          48.000    21610990.741    89725746.322         759.948          41.750  
R19  19528095.488   104462127.553        3262.367          42.250    19528102.629    81248358.832        2537.327          44.500  
R20  21589938.385                        6658.082          29.000    21589940.651    89795316.469        5178.615          33.000  
> 2023  6  6 12 55 33.0000000  0 24                     
E 7  26276694.377   138085086.149        4160.065          40.750    26276707.060   105805413.749        3187.583          42.250  
E 8  28402411.356                        1851.542          25.500    28402413.469                        1419.006          29.250  
E12  25395623.697   133454906.466        5696.511          35.500    25395630.889   102257715.783        4364.919          32.500  
E24  25313138.397   133021451.328        4238.883          34.750    25313148.997   101925555.090        3248.003          36.250  
E26  25470280.094   133847226.803        1596.755          37.500    25470290.394   102558293.291        1223.543          42.750  
E31  25113723.549   131973491.576        1617.248          37.750    25113732.991   101122586.732        1238.801          30.250  
E33  23333063.217   122616065.643        3506.790          49.750    23333069.765    93952601.453        2687.052          46.750  
G 1  22302347.615   117199656.323        6702.965          29.500    22302353.736                        5223.457          26.750                                                                  
G 2  21513709.176   113055298.737        5186.536          46.750                                                                    21513709.730    88095064.484        4041.467          26.750  
G 8  20190432.510   106102099.629        3437.711          49.250    20190438.568    82676911.470        2678.660          45.000    20190437.902    82676465.469        2678.742          49.250  
G10  21527335.658   113127775.524        1965.838          50.250    21527342.248    88151423.547        1531.915          44.750    21527342.825    88150976.548        1531.824          49.250  
G14                                                                  24160720.424                        5009.212          28.250                                                                  
G21  20886542.020   109759514.030        4819.893          46.750                                                                    20886545.364    85526916.608        3755.757          31.000  
G23  24021147.843   126231990.926         335.824          35.000    24021153.052                         261.449          32.000                                                                  
G27  21258040.698   111711395.500        1222.338          46.750    21258047.883    87048773.414         952.350          42.250    21258093.176    87048570.626         952.484          15.500  
G32  23771523.164   124920209.946        6232.138          40.500    23771534.038    97340502.352        4856.185          30.750    23771533.421    97340493.334        4856.204          27.000  
R 3  20661799.428   110604315.922        2966.296          47.250    20661806.666    86025483.324        2307.104          45.750  
R 4  20754839.875   111141247.197        6874.573          47.250    20754847.794    86443225.512        5346.874          45.250  
R 9  22263298.574                         223.920          25.000    22263286.276                         174.071          39.250  
R10  21513955.870                        2894.156          30.000                                                                  
R11  23390914.971   124993971.635        6517.756          35.750    23390930.095    97217608.468        5069.279          35.500  
R18  21610796.737   115359907.366         976.102          48.000    21610807.874    89724987.208         759.266          42.000  
R19  19527485.630   104458866.313        3261.265          41.750    19527493.048    81245822.305        2536.556          44.500  
R20  21588693.977                        6657.425          28.000    21588696.435    89790138.403        5178.151          33.750  
> 2023  6  6 12 55 34.0000000  0 25                     
E 7  26275902.823   138080926.389        4159.596          41.000    26275915.399   105802226.410        3187.323          42.500  
E 8  28402058.514                        1850.989          23.750    28402061.467                        1418.492          29.500  
E12  25394539.981   133449210.351        5696.119          35.250    25394546.985   102253351.207        4364.656          32.750  
E24  25312332.579   133017213.095        4238.035          36.000    25312342.396   101922307.555        3247.509          36.500  
E26  25469975.966   133845630.228        1596.716          37.250    25469986.664   102557069.957        1223.449          42.750  
E31  25113415.834   131971874.733        1616.649          38.750    25113425.191   101121347.819        1239.451          30.750  
E33  23332396.002   122612559.218        3506.338          49.750    23332402.452    93949914.720        2686.742          46.750  
G 1  22301072.348   117192953.716        6702.034          28.250    22301079.136                        5222.640          27.250                                                                  
G 2  21512722.303   113050112.556        5186.167          46.750                                                                    21512722.772    88091023.301        4041.158          26.750  
G 8  20189778.633   106098662.469        3437.075          49.250    20189784.464    82674233.146        2678.164          45.500    20189783.816    82673787.161        2678.240          49.000  
G10  21526961.857   113125810.206        1965.304          50.500    21526968.644    88149892.138        1531.274          44.500    21526968.854    88149445.131        1531.407          49.250  
G14                                                                  24159498.284                        5008.930          27.000                                                                  
G21  20885624.810   109754694.547        4819.397          46.500                                                                    20885628.284    85523161.171        3755.375          31.000  
G23  24021084.136   126231655.520         335.569          34.500    24021089.394                         261.121          32.000                                                                  
G27  21257808.160   111710173.648        1221.692          46.250    21257815.269    87047821.308         951.996          42.250    21257860.612    87047618.563         951.920          16.000  
G32  23770337.200   124913978.248        6231.833          41.000    23770347.453    97335646.520        4855.527          30.500    23770347.578    97335637.477        4855.937          27.000  
R 2  23785253.220                          13.307          21.500                                                                  
R 3  20661245.174   110601350.309        2965.426          47.000    20661252.668    86023176.763        2306.164          45.750  
R 4  20753556.653   111134373.182        6873.982          47.500    20753564.094    86437879.081        5346.136          44.750  
R 9                                                                  22263244.811                         173.537          39.500  
R10  21513411.119                        2893.049          29.750                                                                  
R11  23389693.024   124987454.582        6516.559          30.500    23389710.671    97212539.584        5069.090          36.250  
R18  21610614.116   115358931.576         975.892          48.500    21610624.707    89724228.257         758.839          41.500  
R19  19526876.323   104455605.520        3260.625          42.000    19526883.588    81243286.142        2536.177          44.500  
R20  21587450.227                        6656.976          29.000    21587452.318    89784960.491        5177.858          33.750  
> 2023  6  6 12 55 35.0000000  0 24                     
E 7  26275111.234   138076767.080        4158.946          41.750    26275123.824   105799039.394        3186.669          41.750  
E 8  28401705.282                        1850.104          24.250    28401709.707                        1418.144          29.250  
E12  25393455.595   133443514.268        5695.525          34.500    25393462.881   102248986.640        4364.057          31.750  
E24  25311526.677   133012975.216        4236.501          36.500    25311535.725   101919060.319        3246.727          35.500  
E26  25469671.909   133844033.626        1596.280          37.500    25469682.875   102555846.684        1222.784          42.750  
E31  25113108.401   131970258.208        1616.065          38.750    25113117.628   101120109.124        1239.307          29.500  
E33  23331728.836   122609052.967        3505.742          50.250    23331735.232    93947228.094        2686.287          47.250  
G 1  22299796.715   117186251.320        6701.362          25.250    22299803.941                        5221.762          24.750                                                                  
G 2  21511735.272   113044926.593        5185.330          47.750                                                                    21511735.844    88086982.292        4040.512          26.500  
G 8  20189124.676   106095225.758        3436.083          49.250    20189130.525    82671555.222        2677.427          45.500    20189129.818    82671109.199        2677.462          49.000  
G10  21526588.145   113123845.316        1964.379          51.250    21526595.058    88148361.030        1530.653          45.250    21526594.960    88147914.043        1530.695          49.250  
G14  24158258.420                        6427.304          26.500    24158277.169                        5008.840          28.500                                                                  
G21  20884707.577   109749875.329        4818.628          47.750                                                                    20884711.252    85519405.935        3754.778          31.250  
G23  24021020.250   126231320.378         334.619          33.750    24021025.620                         261.167          30.000                                                                  
G27  21257575.600   111708952.119        1220.918          46.500    21257582.790    87046869.485         951.351          42.750    21257628.096    87046666.782         951.342          16.250  
G32  23769151.326   124907746.811        6230.867          39.250    23769161.328    97330790.789        4855.607          31.750    23769161.762    97330781.826        4855.215          26.750  
R 3  20660690.792   110598385.576        2963.992          48.500    20660698.916    86020870.792        2305.420          46.000  
R 4  20752273.177   111127499.774        6872.706          47.500    20752280.578    86432533.077        5345.354          45.500  
R 9                                                                  22263203.051                         172.920          39.500  
R10  21512867.853                        2892.284          31.500                                                                  
R11  23388472.933   124980937.976        6515.908          38.500    23388490.655    97207471.483        5067.544          34.000  
R18  21610431.473   115357955.962         975.109          48.250    21610441.854    89723469.455         758.313          42.500  
R19  19526266.572   104452345.088        3259.743          42.250    19526274.111    81240750.242        2535.440          44.250  
R20                                                                  21586208.259    89779782.642        5177.691          31.750  
> 2023  6  6 12 55 36.0000000  0 24                     
E 7  26274319.766   138072608.214        4158.522          41.500    26274332.347   105795852.720        3186.539          42.000  
E 8  28401351.912                        1850.671          23.000    28401358.792                        1417.595          26.750  
E12  25392371.593   133437818.283        5695.863          36.000    25392378.740   102244622.266        4364.342          32.000  
E24  25310720.694   133008737.767        4237.461          35.250    25310729.540   101915813.538        3246.626          34.000  
E26  25469367.597   133842437.228        1595.375          34.750    25469379.096   102554623.372        1223.726          43.250  
E31  25112800.803   131968642.037        1616.028          37.750    25112810.285   101118870.675        1238.724          33.000  
E33  23331061.602   122605546.920        3506.099          50.250    23331068.093    93944541.642        2686.433          47.000  
G 1                                                                  22298529.220                        5222.370          27.000                                                                  
G 2  21510748.211   113039740.890        5185.475          47.000                                                                    21510749.007    88082941.478        4040.649          27.000  
G 8  20188470.648   106091789.602        3435.937          50.250    20188476.546    82668877.653        2677.433          44.750    20188475.933    82668431.685        2677.345          48.750  
G10  21526214.447   113121880.908        1964.397          51.000    21526221.539    88146830.363        1530.499          44.750    21526221.154    88146383.331        1530.702          49.500  
G14  24157033.916                        6427.625          31.500    24157054.485                        5008.054          30.000                                                                  
G21  20883790.657   109745056.420        4818.895          48.500                                                                    20883794.270    85515650.937        3754.988          31.500  
G23  24020956.319   126230985.337         335.367          32.500    24020960.723                         261.013          29.500                                                                  
G27  21257343.317   111707730.954        1221.113          46.500    21257350.547    87045917.941         951.550          42.250    21257395.550    87045715.230         951.506          16.500  
G32  23767964.897   124901515.635        6230.763          39.000    23767975.293    97325935.381        4855.254          30.750    23767976.013    97325926.378        4855.125          26.500  
R 3  20660137.026   110595421.735        2963.603          49.000    20660145.070    86018565.628        2304.649          45.750  
R 4  20750989.741   111120626.970        6872.425          48.750    20750997.218    86427187.561        5345.185          45.500  
R 9                                                                  22263161.643                         173.080          39.500  
R10  21512324.403                        2891.519          26.500                                                                  
R11  23387254.622   124974422.114        6515.471          42.250    23387268.972    97202403.456        5068.396          34.750  
R18  21610248.726   115356980.552         975.376          48.250    21610259.452    89722710.837         758.317          41.000  
R19  19525657.237   104449085.053        3259.833          42.000    19525664.597    81238214.659        2535.553          44.500  
R20  21584963.544                        6656.963          26.750    21584964.553    89774604.994        5178.001          28.750  
> 2023  6  6 12 55 37.0000000  0 25                     
E 7  26273528.580   138068449.717        4158.579          41.500    26273541.008   105792666.365        3186.167          42.750  
E 8  28400999.665                        1851.585          19.500    28401006.182                        1417.688          34.250  
E12  25391287.801   133432122.380        5696.068          35.000    25391294.783   102240257.890        4364.362          32.500  
E24  25309914.071   133004500.879        4236.906          32.250    25309924.165   101912567.042        3246.594          33.750  
E26  25469063.580   133840840.817        1596.281          35.750    25469075.437   102553400.126        1223.356          43.750  
E31  25112492.820   131967026.084        1615.848          38.250    25112503.384   101117632.559        1237.703          32.250  
E33  23330394.472   122602040.999        3506.066          50.000    23330400.877    93941855.323        2686.444          47.250  
G 1  22297248.167   117172846.992        6701.494          29.000    22297253.797                        5222.827          22.000                                                                  
G 2  21509761.351   113034555.391        5185.543          47.250                                                                    21509762.236    88078900.832        4040.678          27.500  
G 8  20187816.754   106088353.878        3435.643          50.250    20187822.669    82666200.501        2677.223          44.750    20187822.124    82665754.489        2677.116          49.000  
G10  21525840.946   113119916.927        1963.915          51.750    21525847.975    88145299.977        1530.317          44.750    21525847.443    88144852.961        1530.336          49.500  
G14  24155811.597                        6427.378          36.000    24155829.314    98914089.2721       5008.134          38.250                                                                  
G21  20882873.796   109740237.772        4818.691          47.750                                                                    20882877.332    85511896.143        3754.811          32.000  
G23  24020892.111   126230650.409         335.141          34.250    24020896.242                         260.967          29.250                                                                  
G27  21257110.985   111706510.144        1220.879          46.000    21257118.421    87044966.628         951.566          43.250    21257163.074    87044763.984         951.327          16.750  
G32  23766778.884   124895284.813        6230.588          40.250    23766789.446    97321080.096        4856.479          30.000    23766790.291    97321071.200        4854.997          26.750  
R 2  23785239.563                          11.626          32.750                                                                  
R 3  20659583.202   110592458.687        2962.751          48.250    20659591.536    86016261.018        2304.482          45.250  
R 4  20749706.568   111113754.705        6872.190          48.250    20749713.862    86421842.489        5345.106          45.500  
R 9                                                                  22263119.637    92465180.153         172.657          38.750  
R10  21511783.319                        2890.757          31.250                                                                  
R11  23386036.096   124967906.710        6515.317          40.000    23386049.570    97197335.908        5067.684          35.750  
R18  21610066.172   115356005.279         975.426          48.750    21610076.576    89721952.265         759.069          41.500  
R19  19525048.015   104445825.381        3259.837          42.250    19525055.222    81235679.357        2535.350          45.500  
R20  21583719.637                        6656.625          31.250    21583721.420    89769427.474        5177.355          32.250  
> 2023  6  6 12 55 38.0000000  0 25                     
E 7  26272737.308   138064291.846        4157.753          42.250    26272749.902   105789480.455        3185.954          42.250  
E 8                                                                  28400653.009   114357665.2261       1417.487          36.500  
E12  25390203.907   133426426.801        5696.051          33.500    25390210.804   102235893.727        4364.259          32.000  
E24  25309106.778   133000264.560        4236.422          28.000    25309118.696   101909321.051        3246.063          35.750  
E26  25468759.394   133839244.511        1595.933          37.250    25468771.840   102552177.054        1223.359          42.250  
E31  25112185.226   131965410.691        1615.391          39.000    25112196.430   101116394.988        1235.188          26.000  
E33  23329727.386   122598535.461        3505.922          49.250    23329733.836    93939169.247        2686.210          47.250  
G 1  22295974.439   117166145.258        6701.749          29.000    22295978.834                        5221.606          25.250                                                                  
G 2  21508774.772   113029370.334        5185.207          47.500                                                                    21508775.505    88074860.532        4040.423          27.750  
G 8  20187162.882   106084918.850        3435.255          49.250    20187168.999    82663523.882        2676.650          44.500    20187168.449    82663077.847        2676.822          49.000  
G10  21525467.530   113117953.564        1963.412          51.000    21525474.367    88143770.086        1529.981          43.500    21525473.830    88143323.069        1529.925          49.250  
G14  24154589.060   126933218.8871       6426.728          33.750    24154603.660    98909081.662        5007.854          36.250                                                                  
G21  20881957.037   109735419.617        4818.268          48.250                                                                    20881960.493    85508141.748        3754.489          32.000  
G23  24020827.992   126230315.841         335.000          33.750    24020832.379                         260.532          28.500                                                                  
G27  21256878.675   111705289.853        1220.509          46.250    21256886.218    87044015.757         951.083          42.000    21256930.613    87043813.089         951.046          16.500  
G32  23765592.567   124889054.272        6230.704          39.250    23765604.358    97316225.237        4855.272          32.000    23765604.640    97316216.232        4855.072          26.250  
R 2  23785236.518                          11.156          37.750    23785232.317                           8.620          32.000  
R 3  20659029.553   110589496.709        2961.866          48.750    20659038.173    86013957.259        2303.877          45.250  
R 4  20748423.271   111106883.233        6871.568          47.500    20748430.860    86416498.043        5344.396          45.750  
R 9                                                                  22263077.671    92465007.784         172.440          38.500  
R10  21511243.527                        2889.780          30.250                                                                  
R11  23384817.896   124961392.234        6514.687          36.000    23384831.133    97192268.966        5067.417          33.000  
R18  21609883.677   115355030.369         975.359          47.250    21609893.928    89721194.025         758.292          41.250  
R19  19524438.506   104442566.257        3259.156          42.000    19524445.915    81233144.489        2535.033          45.000  
R20  21582474.956                        6656.604          31.000    21582477.508    89764250.136        5177.904          32.750  
> 2023  6  6 12 55 39.0000000  0 25                     
E 7  26271945.907   138060134.466        4156.907          40.000    26271958.760   105786294.931        3185.344          43.000  
E 8                                                                  28400300.099   114356248.012        1417.014          35.000  
E12  25389120.066   133420731.434        5695.221          33.250    25389126.985   102231529.679        4363.882          31.000  
E24  25308299.668   132996028.643        4234.974          28.250    25308313.281   101906075.406        3245.235          35.500  
E26  25468455.681   133837648.239        1597.058          36.750    25468468.240   102550954.041        1223.022          43.750  
E31  25111878.021   131963795.714        1613.945          38.000                                                                  
E33  23329060.296   122595030.163        3505.066          50.000    23329066.836    93936483.337        2685.663          47.250  
G 1  22294699.003   117159443.948        6700.584          31.250    22294704.087                        5221.388          23.750                                                                  
G 2  21507788.234   113024185.582        5184.027          46.250                                                                    21507788.842    88070820.467        4039.502          27.500  
G 8  20186509.162   106081484.383        3433.856          49.750    20186515.332    82660847.640        2675.820          44.500    20186514.881    82660401.646        2675.748          48.750  
G10  21525094.015   113115990.716        1962.262          50.250    21525100.597    88142240.666        1529.035          43.500    21525100.311    88141793.582        1529.029          49.250  
G14  24153366.648   126926792.892        6425.838          39.000    24153379.204    98904074.366        5007.128          37.750                                                                  
G21  20881040.229   109730601.806        4817.056          46.750                                                                    20881043.730    85504387.614        3753.538          31.750  
G23  24020763.936   126229981.493         333.803          33.250    24020768.582                         260.238          30.750                                                                  
G27  21256646.464   111704069.994        1219.467          46.500    21256654.092    87043065.202         950.335          42.750    21256698.348    87042862.555         950.234          16.000  
G32  23764406.952   124882824.207        6229.580          40.000    23764419.669    97311370.611        4854.396          32.750    23764419.106    97311361.644        4854.220          26.250  
R 2  23785234.765   126922568.8371         10.905          36.500    23785231.575                           8.184          29.250  
R 3  20658476.252   110586535.592        2960.566          48.000    20658484.823    86011654.248        2302.299          44.250  
R 4  20747139.817   111100012.505        6869.936          48.000    20747147.692    86411154.101        5343.363          45.250  
R 9                                                                  22263036.322    92464835.807         171.543          38.250  
R10  21510703.498                        2888.968          28.250                                                                  
R11  23383598.431   124954878.330        6514.218          35.250    23383612.200    97187202.703        5066.253          31.250  
R18  21609701.243   115354055.761         974.224          48.500    21609711.320    89720435.919         757.912          40.500  
R19  19523829.238   104439307.535        3258.577          42.750    19523836.768    81230609.930        2534.278          45.500  
R20  21581230.374                        6656.422          30.750    21581233.865    89759072.937        5176.804          31.750  
> 2023  6  6 12 55 40.0000000  0 24                     
E 7  26271154.604   138055977.563        4156.531          40.000    26271167.819   105783109.923        3184.739          43.250  
E 8                                                                  28399947.494   114354831.304        1416.421          31.750  
E12  25388036.494   133415036.674        5694.993          32.000    25388043.064   102227166.310        4362.604          30.500  
E24  25307493.090   132991793.872        4234.849          30.750    25307507.803   101902830.530        3244.486          36.500  
E26  25468153.149   133836052.495        1595.544          43.250    25468164.330   102549731.138        1222.934          42.750  
E31  25111570.941   131962181.546        1613.901          37.750    25111582.051   101113920.998        1235.665          22.750  
E33  23328393.260   122591525.385        3504.654          49.500    23328399.777    93933797.904        2685.418          46.500  
G 1  22293423.285                        6699.885          15.750    22293430.332                        5220.927          29.500                                                                  
G 2  21506801.731   113019001.565        5183.691          46.750                                                                    21506802.352    88066780.979        4039.229          27.250  
G 8  20185855.384   106078050.797        3433.272          48.500    20185861.872    82658172.184        2675.182          44.500    20185861.483    82657726.125        2675.270          48.750  
G10  21524720.371   113114028.545        1962.186          48.500    21524726.595    88140711.592        1529.386          41.250    21524726.922    88140264.630        1528.974          48.750  
G14  24152144.934   126920367.700        6424.750          40.000    24152155.236    98899067.769        5006.220          38.250                                                                  
G21  20880123.703   109725784.792        4816.680          47.750                                                                    20880127.101    85500634.102        3753.253          31.500  
G23                                                                  24020705.747                         260.203          32.000                                                                  
G27  21256414.485   111702850.895        1218.816          47.250    21256422.270    87042115.267         949.640          43.750    21256466.226    87041912.633         949.653          15.500  
G32  23763221.538   124876594.580        6229.328          41.500    23763235.360    97306516.527        4853.905          36.750    23763233.674    97306507.394        4853.995          26.500  
R 2  23785233.764   126922558.659           9.970          39.000    23785230.524                           7.721          26.000  
R 3  20657923.595   110583575.677        2959.605          49.750    20657931.818    86009352.045        2301.842          45.500  
R 4  20745856.255   111093142.735        6869.285          48.250    20745864.560    86405810.943        5342.768          46.000  
R 9                                                                  22262995.138    92464664.577         170.849          37.750  
R11  23382380.500   124948365.564        6511.846          35.250    23382392.981    97182137.414        5064.811          30.500  
R18  21609518.689   115353081.528         974.142          47.750    21609528.690    89719678.071         757.214          40.500  
R19  19523219.707   104436049.563        3257.647          42.000    19523227.563    81228075.948        2533.680          45.250  
R20  21579985.233                        6655.542          31.250    21579987.297    89753896.361        5175.993          30.000  
> 2023  6  6 12 55 41.0000000  0 25                     
E 7  26270364.057   138051821.088        4156.792          41.500    26270376.343   105779925.056        3184.413          42.000  
E 8  28399582.335                        1848.379          26.000    28399594.381   114353414.776        1415.963          31.500  
E12  25386953.116   133409342.533        5694.211          33.500    25386960.245   102222803.156        4363.097          33.000  
E24  25306688.401   132987559.878        4234.048          38.250    25306701.446   101899586.256        3244.324          33.250  
E26  25467850.545   133834456.531        1596.027          42.500    25467860.546   102548508.311        1222.500          43.750  
E31  25111263.866   131960568.242        1613.121          37.500    25111272.946                        1235.666          29.750  
E33  23327725.844   122588020.956        3504.198          49.500    23327732.445    93931112.705        2684.924          45.250  
G 1                                                                  22292154.885                        5218.697          33.500                                                                  
G 2  21505815.212   113013818.171        5183.257          48.250                                                                    21505815.914    88062741.982        4038.893          27.500  
G 8  20185201.798   106074617.913        3432.385          49.500    20185208.588    82655497.215        2674.682          44.750    20185208.228    82655051.171        2674.562          48.750  
G10  21524346.934   113112066.826        1961.072          49.500    21524352.709    88139182.989        1528.376          43.750    21524353.560    88138736.002        1528.130          48.000  
G14  24150922.985   126913943.334        6424.606          38.000    24150931.829    98894061.768        5005.743          35.250    24150929.276                        5006.059          18.250  
G21  20879207.046   109720968.443        4816.243          46.750                                                                    20879210.601    85496881.109        3752.918          32.250  
G23  24020637.884                         331.822          25.750    24020640.767                         262.056          26.500                                                                  
G27  21256182.573   111701632.059        1218.358          46.000    21256189.966    87041165.455         949.117          43.000    21256234.242    87040963.064         949.265          17.250  
G32  23762037.120   124870365.240        6228.759          44.500    23762050.140    97301662.324        4855.487          31.750    23762048.405    97301653.408        4853.524          30.000  
R 2  23785232.157   126922548.774           9.471          39.250    23785228.645                           7.666          28.250  
R 3  20657370.820   110580616.507        2958.856          48.250    20657378.314    86007050.407        2301.015          44.000  
R 4  20744572.968   111086273.465        6868.846          48.250    20744581.790    86400468.219        5342.229          44.000  
R 9  22262935.109                         219.377          37.250    22262954.013    92464493.872         170.323          36.750  
R10  21509624.153                        2884.115          27.000                                                                  
R11  23381162.904   124941853.734        6511.900          39.500    23381175.039    97177072.691        5065.060          33.000  
R18  21609336.060   115352107.233         973.710          45.500    21609345.793    89718920.391         757.634          42.500  
R19  19522609.931   104432792.000        3257.164          38.750    19522617.898    81225542.251        2533.788          42.000  
R20  21578738.889                        6654.972          30.250    21578739.247    89748720.108        5176.202          28.250  
> 2023  6  6 12 55 42.0000000  0 25                     
E 7  26269573.114   138047664.959        4157.134          41.500    26269584.853   105776740.440        3184.936          41.500  
E 8  28399230.682                        1848.157          26.500    28399242.438   114351998.168        1417.060          34.750  
E12  25385869.727   133403648.241        5695.542          32.000    25385876.914   102218440.114        4363.198          28.000  
E24  25305884.397   132983326.075        4234.239          34.750    25305894.397   101896342.066        3245.314          32.000  
E26  25467547.287   133832860.559        1596.011          42.000    25467556.752   102547285.440        1223.114          44.250  
E31  25110957.779   131958955.224        1613.189          40.000    25110965.870                        1235.367          30.250  
E33  23327059.035   122584516.616        3504.904          48.750    23327065.618    93928427.513        2685.622          44.500  
G 1                                                                  22290880.870                        5220.425          32.250                                                                  
G 2  21504828.778   113008634.899        5183.603          49.000                                                                    21504829.488    88058703.077        4039.167          29.000  
G 8  20184548.770   106071185.526        3432.528          51.000    20184555.411    82652822.581        2674.631          42.750    20184555.052    82652376.607        2674.672          48.500  
G10  21523973.451   113110105.492        1961.804          48.500    21523979.370    88137654.732        1528.522          42.750    21523980.293    88137207.682        1528.683          48.250  
G14  24149699.372   126907518.807        6424.503          37.500    24149708.384    98889055.517        5006.112          30.750    24149706.158    98889012.6521       5006.081          16.750  
G21  20878290.206   109716152.227        4816.673          46.250                                                                    20878294.082    85493128.206        3753.258          32.250  
G23  24020577.262                         333.368          24.000    24020575.651                         260.385          29.250                                                                  
G27  21255950.608   111700413.836        1218.348          47.000    21255957.938    87040216.206         949.447          43.500    21256002.287    87040013.814         949.401          17.000  
G32  23760852.102   124864136.339        6228.790          43.500    23760864.538    97296808.777        4853.832          37.000    23760863.191    97296799.722        4853.512          29.750  
R 2  23785229.454   126922538.778          10.711          40.250                                                                  
R 3  20656817.927   110577657.940        2958.996          47.250    20656825.794    86004749.386        2301.157          44.500  
R 4  20743290.297   111079405.184        6868.391          46.500    20743298.376    86395126.119        5341.956          41.750  
R 9  22262896.524                         219.078          36.500    22262912.295    92464323.546         170.275          33.250  
R10  21509085.287                        2885.698          33.500                                                                  
R11  23379945.047   124935341.703        6512.417          36.000    23379954.626    97172007.855        5064.950          31.500  
R18  21609153.198   115351133.246         974.331          45.750    21609163.174    89718162.776         758.047          41.250  
R19  19522000.582   104429534.707        3257.339          41.000    19522008.555    81223008.879        2533.638          44.750  
R20  21577493.233                        6654.771          26.250                                                                  
> 2023  6  6 12 55 43.0000000  0 25                     
E 7  26268782.256   138043509.099        4155.354          40.500    26268793.764   105773556.065        3184.147          40.750  
E 8  28398882.477                        1847.514          27.250    28398890.720   114350581.308        1417.889          35.000  
E12  25384787.372   133397953.669        5697.173          30.000    25384791.050   102214075.990        4363.582          24.750  
E24  25305078.762   132979091.898        4234.885          38.250    25305087.712   101893097.860        3244.937          37.750  
E26  25467244.319   133831264.525        1595.201          42.500    25467252.848   102546062.458        1222.734          43.250  
E31  25110650.771   131957342.705        1611.400          39.250    25110658.943   101110216.9751       1235.304          34.250  
E33  23326392.057   122581012.197        3504.978          49.000    23326398.753    93925742.316        2685.336          46.500  
G 1  22289604.032                        6699.649          30.000    22289605.820                        5222.838          28.250                                                                  
G 2  21503842.318   113003451.539        5184.037          48.750                                                                    21503843.082    88054664.085        4039.522          30.750  
G 8  20183895.829   106067753.531        3431.622          50.750    20183902.733    82650148.327        2673.995          45.500    20183901.937    82649702.317        2674.000          48.750  
G10  21523600.037   113108144.389        1960.400          48.500    21523605.841    88136126.455        1528.765          42.250    21523607.053    88135679.550        1527.609          47.500  
G14  24148477.068   126901093.860        6426.951          31.500    24148485.742    98884050.508        5003.104          29.000    24148483.095    98884006.116        5008.256          16.000  
G21  20877373.870   109711335.986        4816.744          49.250                                                                    20877377.545    85489375.288        3753.307          32.750  
G23                                                                  24020512.126                         258.474          33.250                                                                  
G27  21255719.121   111699196.201        1216.813          47.750    21255726.423    87039267.346         948.299          43.250    21255770.392    87039065.135         947.914          16.000  
G32  23759666.858   124857907.947        6227.644          39.750    23759678.971    97291955.471        4852.693          38.000    23759677.871    97291946.438        4852.740          31.000  
R 2  23785226.470                          13.146          38.750                                                                  
R 3  20656265.491   110574700.094        2957.104          49.250    20656273.432    86002448.738        2300.323          46.000  
R 4  20742007.660   111072537.776        6866.067          46.250    20742016.102    86389784.832        5340.420          45.750  
R 9  22262857.287   118882388.2501        217.138          32.000                                                                  
R10  21508543.401                        2885.314          34.750                                                                  
R11  23378727.457   124928830.128        6508.777          36.500    23378737.166    97166942.839        5063.387          36.000  
R18  21608970.446   115350159.345         973.641          44.500    21608980.984    89717405.286         757.382          43.250  
R19  19521391.403   104426277.402        3257.817          40.500    19521399.564    81220475.428        2533.062          43.000  
R20  21576247.068                        6655.486          28.000                                                                  
> 2023  6  6 12 55 44.0000000  0 26                     
E 7  26267991.410   138039354.083        4154.366          41.250    26268002.894   105770372.298        3183.095          40.250  
E 8  28398533.145                        1847.716          28.750    28398539.304   114349165.121        1415.069          35.000  
E12                                                                  25383708.108   102209712.428        4363.554          29.500  
E24  25304273.016   132974858.183        4232.709          35.000    25304281.268   101889853.837        3243.349          37.250  
E26  25466941.022   133829669.024        1595.366          42.250    25466948.863   102544839.917        1222.199          41.250  
E31  25110343.459   131955729.882        1613.097          34.500    25110352.721   101108981.040        1235.949          34.500  
E33  23325725.383   122577508.042        3503.746          50.000    23325731.971    93923057.276        2684.608          46.500  
G 1  22288328.287                        6699.643          31.250    22288331.372                        5220.700          28.750                                                                  
G 2  21502855.931   112998268.128        5183.083          48.250                                                                    21502856.705    88050625.058        4038.765          31.750  
G 8  20183243.048   106064321.946        3431.323          51.000    20183249.845    82647474.337        2673.682          44.750    20183248.901    82647028.348        2673.769          49.000  
G10  21523226.862   113106184.064        1959.678          49.000    21523232.890    88134599.010        1527.072          44.250    21523233.968    88134152.013        1527.021          47.500  
G14  24147255.492   126894669.624        6423.653          34.750                                                                    24147260.630    98879000.251        5005.435          14.500  
G21  20876457.487   109706519.835        4815.900          48.250                                                                    20876461.028    85485622.435        3752.680          33.750  
G23  24020453.758                         333.682          21.250    24020448.937                         259.784          31.000                                                                  
G27  21255487.862   111697978.866        1217.536          48.750    21255494.596    87038318.815         948.739          43.000    21255538.731    87038116.777         948.547          15.000  
G30  25648796.738                        1824.159          20.000                                                                                                                                  
G32  23758482.088   124851680.123        6228.002          43.750    23758493.651    97287102.610        4853.153          39.750    23758492.739    97287093.594        4852.974          32.750  
R 2  23785224.762                           8.181          41.500                                                                  
R 3  20655713.402   110571743.521        2955.637          50.250    20655721.132    86000149.152        2298.759          45.500  
R 4  20740725.109   111065670.950        6867.244          48.500    20740733.936    86384443.953        5341.100          45.250  
R 9                                                                  22262831.056                         170.059          27.000  
R10  21508000.286                        2884.130          32.000                                                                  
R11  23377509.512   124922319.261        6510.582          34.250                                                                  
R18  21608787.673   115349186.082         973.139          45.750    21608799.141    89716648.313         756.824          43.750  
R19  19520782.462   104423020.800        3255.950          40.750    19520790.895    81217942.406        2532.458          44.750  
R20  21575000.049                        6655.542          32.000                                                                  
> 2023  6  6 12 55 45.0000000  0 24                     
E 7  26267201.471   138035199.495        4154.658          42.750    26267211.967   105767188.853        3183.388          37.000  
E 8  28398182.950                        1847.202          25.000    28398188.197   114347749.544        1415.900          33.500  
E12  25382614.866                        5694.337          20.500    25382625.667   102205348.970        4363.627          29.250  
E24  25303467.051   132970625.077        4233.545          36.250    25303475.187   101886610.328        3243.496          39.000  
E26  25466637.627   133828073.358        1595.863          44.000    25466645.199   102543617.264        1222.848          43.250  
E31  25110035.762   131954116.746        1612.947          30.000    25110046.084   101107745.021        1236.458          35.250  
E33  23325058.798   122574003.940        3504.216          50.500    23325065.176    93920372.339        2685.039          46.500  
G 1  22287053.691                        6700.367          27.000    22287056.561                        5220.863          27.000                                                                  
G 2  21501869.563   112993084.869        5183.351          48.750                                                                    21501870.421    88046586.156        4038.972          32.500  
G 8  20182590.142   106060890.568        3431.388          51.000    20182597.185    82644800.525        2673.836          44.750    20182595.919    82644354.538        2673.817          49.000  
G10  21522853.992   113104224.147        1959.918          49.750    21522860.019    88133071.834        1527.107          45.250    21522860.998    88132624.805        1527.206          48.000  
G14  24146032.959   126888245.997        6423.085          33.000                                                                    24146038.258    98873994.805        5005.154          13.000  
G21  20875541.064   109701703.850        4816.080          49.000                                                                    20875544.542    85481869.699        3752.805          34.250  
G23                                                                  24020385.726                         259.397          29.500                                                                  
G27  21255256.196   111696761.229        1217.696          48.500    21255262.563    87037369.950         948.900          43.250    21255306.904    87037168.061         948.794          15.500  
G32  23757296.871   124845451.838        6228.468          41.250    23757308.707    97282249.414        4853.350          40.000    23757307.562    97282240.388        4853.350          34.000  
R 2  23785223.206                           8.676          40.250                                                                  
R 3  20655161.881   110568787.783        2955.626          51.500    20655168.820    85997850.189        2298.808          44.750  
R 4  20739443.032   111058803.963        6866.969          50.250    20739452.070    86379102.977        5340.918          46.500  
R 9                                                                  22262790.186    92463813.272         169.866          26.000  
R10  21507459.640   114646874.5321       2884.009          35.000                                                                  
R11  23376290.579   124915808.499        6509.420          30.500                                                                  
R18  21608605.664   115348212.681         973.549          47.250    21608617.101    89715891.219         757.383          44.500  
R19  19520174.089   104419764.566        3256.197          39.750    19520182.298    81215409.800        2532.596          45.750  
> 2023  6  6 12 55 46.0000000  0 24                     
E 7  26266411.594   138031045.248        4155.274          41.000    26266421.022   105764005.841        3182.755          35.000  
E 8                                                                  28397836.629   114346334.144        1415.124          30.500  
E12  25381533.556                        5693.505          25.250                                                                  
E24  25302662.606   132966392.997        4232.294          30.750    25302669.955   101883367.293        3244.366          33.250  
E26  25466334.017   133826477.668        1596.120          42.000    25466341.701   102542394.629        1222.594          40.250  
E31  25109728.414   131952505.007        1604.100          23.750    25109739.152   101106509.311        1234.050          31.000  
E33  23324392.128   122570500.019        3503.400          46.750    23324398.381    93917687.452        2685.983          42.000  
G 1  22285780.285                        6699.521          29.500    22285783.387                        5220.710          19.750                                                                  
G 2  21500883.342   112987901.980        5183.907          43.750                                                                    21500884.214    88042547.540        4039.426          32.250  
G 8  20181937.241   106057459.620        3431.037          48.500    20181944.525    82642127.037        2673.745          41.500    20181943.031    82641681.065        2673.545          49.000  
G10  21522481.188   113102264.658        1959.489          50.000    21522487.224    88131544.914        1527.233          43.750    21522488.141    88131097.938        1526.866          48.500  
G14  24144812.815   126881823.653        6419.457          33.000                                                                    24144816.146    98868990.358        5002.057          11.250  
G21  20874624.605   109696888.318        4815.697          43.750                                                                    20874628.155    85478117.329        3752.495          34.500  
G23                                                                  24020322.945                         259.297          30.250                                                                  
G27  21255024.423   111695543.855        1218.167          47.500    21255030.911    87036421.480         947.512          42.750    21255074.885    87036219.498         949.231          16.250  
G32  23756111.797   124839223.911        6227.543          41.250    23756123.486    97277396.483        4851.980          37.750    23756122.462    97277387.459        4852.624          34.250  
R 2  23785221.315                           6.806          40.250                                                                  
R 3  20654610.266   110565832.852        2954.561          50.750    20654617.084    85995551.968        2297.758          44.000  
R 4  20738160.982   111051937.482        6866.452          47.750    20738169.792    86373762.463        5340.124          44.000  
R10  21506920.599   114643991.287        2884.795          30.750                                                                  
R11  23375072.773   124909300.234        6507.492          32.500    23375080.827                        5063.615          29.750  
R18  21608423.517   115347239.407         973.133          44.500    21608435.209    89715134.291         756.716          41.250  
R19  19519565.850   104416508.572        3256.357          37.250    19519573.867    81212877.422        2531.756          42.250  
R20  21572507.151                        6655.778          27.000                                                                  
> 2023  6  6 12 55 47.0000000  0 25                     
E 7  26265621.459   138026891.475        4153.944          40.750    26265629.818   105760822.980        3182.663          38.500  
E 8                                                                  28397485.369   114344918.986        1415.206          32.250  
E12                                                                  25380462.631                        4363.350          23.500  
E24  25301857.106   132962161.433        4230.955          24.000    25301865.358   101880124.367        3242.926          33.250  
E26  25466030.443   133824882.051        1595.883          43.500    25466038.445   102541171.959        1222.756          42.250  
E31                                                                  25109432.591   101105273.814        1235.483          33.250  
E33  23323725.472   122566996.212        3503.688          46.250    23323731.568    93915002.839        2684.325          39.250  
G 1  22284506.507                        6699.507          30.000    22284511.206                        5219.851          22.500                                                                  
G 2  21499897.224   112982719.043        5182.399          44.000                                                                    21499897.970    88038508.894        4038.215          31.000  
G 8  20181284.500   106054029.162        3430.230          48.250    20181291.976    82639453.989        2672.679          41.000    20181290.237    82639007.979        2672.902          48.250  
G10  21522108.295   113100305.552        1959.129          50.750    21522114.524    88130018.432        1526.220          43.000    21522115.342    88129571.356        1526.616          48.500  
G14  24143593.139                        6423.506          34.500    24143603.960                        5004.883          22.250                                                                  
G21  20873708.168   109692072.794        4815.042          44.000                                                                    20873711.772    85474364.979        3751.973          33.250  
G23  24020261.581                         333.477          25.000    24020259.032                         259.117          31.500                                                                  
G27  21254792.677   111694326.928        1217.016          47.000    21254799.053    87035473.174         947.759          40.000    21254842.946    87035271.257         948.232          15.250  
G32  23754926.916   124832996.228        6227.863          41.000    23754938.269    97272543.571        4852.973          41.250    23754937.410    97272534.743        4852.827          34.750  
R 2  23785219.378                           8.853          39.000                                                                  
R 3  20654058.781   110562878.744        2953.802          50.250    20654065.335    85993254.274        2297.497          44.000  
R 4  20736879.299   111045071.672        6865.321          48.750    20736887.527    86368422.419        5339.216          43.000  
R 9  22262702.985                         217.515          24.500                                                                  
R10  21506381.644   114641108.787        2882.358          32.250                                                                  
R11  23373857.913   124902790.760        6509.180          36.750                                                                  
R18  21608241.276   115346266.428         971.929          44.000    21608252.941    89714377.409         756.877          41.000  
R19  19518957.325   104413253.134        3254.924          35.750    19518965.364    81210345.312        2531.964          40.750  
R20  21571263.449                        6655.083          24.750                                                                  
> 2023  6  6 12 55 48.0000000  0 23                     
E 7  26264831.193   138022738.554        4152.578          41.000    26264839.687   105757640.885        3182.476          38.000  
E 8                                                                  28397134.307   114343504.414        1414.465          33.250  
E12                                                                  25379378.973                        4362.721          22.750  
E24  25301052.451   132957930.223        4232.060          31.750    25301060.698   101876882.223        3242.333          35.750  
E26  25465727.084   133823286.874        1595.643          44.000    25465734.763   102539949.722        1222.263          43.500  
E31                                                                  25109125.681   101104038.829        1234.626          33.500  
E33  23323059.035   122563493.018        3503.602          46.000    23323065.154    93912318.561        2684.461          41.500  
G 1  22283232.202                        6698.926          27.000                                                                                                                                  
G 2  21498910.847   112977536.938        5182.544          41.500                                                                    21498911.857    88034470.911        4038.338          30.000  
G 8  20180632.005   106050599.642        3429.486          48.250    20180639.813    82636781.638        2672.203          41.500    20180637.657    82636335.639        2672.306          47.000  
G10  21521735.666   113098347.411        1958.119          50.500    21521742.431    88128492.596        1525.515          44.750    21521742.735    88128045.553        1525.767          48.500  
G21  20872792.241   109687258.119        4814.882          43.500                                                                    20872795.518    85470613.280        3751.862          32.000  
G23                                                                  24020195.937                         258.863          30.250                                                                  
G27  21254561.055   111693110.727        1216.020          46.500    21254567.324    87034525.482         947.535          43.750    21254611.303    87034323.593         947.555          15.000  
G32  23753741.877   124826769.124        6227.055          44.000    23753753.490    97267691.425        4852.091          40.250    23753752.470    97267682.403        4852.276          35.750  
R 2  23785219.289                           6.780          42.250                                                                  
R 3  20653507.134   110559925.927        2952.479          51.250    20653513.810    85990957.647        2296.134          45.750  
R 4  20735597.852   111038206.921        6865.317          45.750    20735605.741    86363083.163        5339.162          44.750  
R 9  22262665.289                         216.921          25.500                                                                  
R10  21505841.830   114638227.576        2880.193          32.500                                                                  
R18  21608059.451   115345293.908         972.519          45.500    21608070.950    89713621.051         756.538          42.000  
R19  19518349.900   104409998.391        3254.735          35.000    19518356.866    81207813.852        2531.497          40.750  
R20  21570018.107                        6653.197          20.500                                                                  
> 2023  6  6 12 55 49.0000000  0 25                     
E 7  26264040.548   138018586.244        4151.269          39.500    26264050.056   105754459.285        3181.084          35.750  
E 8                                                                  28396782.994   114342090.259        1413.522          32.000  
E12                                                                  25378297.565                        4361.888          22.750  
E24  25300247.116   132953699.492        4229.938          33.750    25300255.887   101873640.535        3241.155          38.500  
E26  25465423.577   133821692.008        1594.277          43.000    25465431.328   102538727.698        1221.498          40.500  
E31  25108809.388                        1610.599          31.000    25108819.134   101102804.402        1233.815          30.750  
E33  23322392.490   122559990.314        3501.967          48.250    23322398.497    93909634.622        2683.396          42.750  
G 1  22281956.730                        6698.065          30.250                                                                                                                                  
G 2  21497925.154   112972355.242        5180.953          41.750                                                                    21497925.775    88030433.226        4037.101          28.500  
G 8  20179979.658   106047170.902        3427.934          50.000    20179987.304    82634109.882        2671.092          43.500    20179985.234    82633663.893        2671.132          47.000  
G10  21521363.417   113096390.031        1956.678          51.250    21521370.115    88126967.282        1524.608          44.250    21521370.298    88126520.325        1524.727          48.750  
G14                                                                  24141165.669                        5003.338          30.250                                                                  
G21  20871876.287   109682443.913        4813.461          43.500                                                                    20871879.368    85466861.951        3750.743          30.750  
G23  24020137.878                         331.233          27.250    24020132.954                         258.615          31.250                                                                  
G27  21254329.823   111691895.161        1214.778          48.250    21254336.571    87033578.181         946.659          41.000    21254379.686    87033376.321         946.639          14.250  
G32  23752556.915   124820542.627        6225.673          41.750    23752568.711    97262839.683        4851.196          39.250    23752567.674    97262830.603        4851.121          36.250  
R 2  23785217.344                           5.590          38.000                                                                  
R 3  20652955.515   110556974.208        2950.619          50.750    20652962.656    85988661.908        2294.974          44.500  
R 4  20734316.120   111031343.109        6863.078          50.000    20734323.700    86357744.520        5338.019          43.500  
R 9                                                                  22262616.955                         167.836          25.000  
R10  21505300.768   114635347.346        2879.212          33.500                                                                  
R11                                                                  23371434.769    97136525.9711       5059.803          29.000  
R18  21607877.161   115344321.858         971.400          47.250    21607888.808    89712865.002         755.532          39.500  
R19  19517741.151   104406744.290        3253.275          39.000    19517748.734    81205282.923        2530.320          42.000  
R20                                                                  21568775.473                        5175.685          25.750  
> 2023  6  6 12 55 50.0000000  0 25                     
E 7  26263250.475   138014434.894        4151.937          41.750    26263260.690   105751278.353        3180.550          37.000  
E 8                                                                  28396431.676   114340676.691        1413.454          33.000  
E12  25377200.438                        5692.149          25.500    25377216.573                        4361.651          22.500  
E24  25299442.018   132949469.405        4230.683          32.000    25299451.062   101870399.323        3241.791          37.250  
E26  25465120.065   133820097.578        1594.844          44.250    25465127.839   102537505.951        1221.989          41.250  
E31  25108503.167                        1609.979          27.250    25108512.854   101101570.458        1234.232          34.250  
E33  23321725.919   122556488.224        3502.557          49.750    23321732.056    93906951.193        2683.932          45.000  
G 1  22280681.839                        6697.843          32.500                                                                                                                                  
G 2  21496939.496   112967174.221        5181.302          46.500                                                                    21496939.845    88026396.082        4037.362          28.000  
G 8  20179327.490   106043743.085        3428.134          51.500    20179334.841    82631438.863        2671.260          44.250    20179332.954    82630992.857        2671.282          47.250  
G10  21520991.185   113094433.400        1956.528          50.000    21520997.964    88125442.663        1525.194          43.750    21520997.955    88124995.660        1524.569          48.750  
G14  24139934.708                        6422.071          27.750    24139943.316                        5003.004          30.000                                                                  
G21  20870960.427   109677630.417        4813.794          47.500                                                                    20870963.360    85463111.177        3751.021          30.250  
G23  24020073.867                         331.314          24.500    24020069.775                         258.047          30.750                                                                  
G27  21254098.837   111690680.333        1215.165          49.250    21254105.906    87032631.594         946.727          42.750    21254148.186    87032429.591         946.876          14.250  
G32  23751371.806   124814316.773        6226.385          40.500    23751383.686    97257988.390        4851.502          39.250    23751382.975    97257979.334        4851.730          36.000  
R 2  23785216.181                           5.787          40.250                                                                  
R 3  20652404.495   110554023.740        2950.401          51.000    20652411.466    85986367.044        2294.677          43.250  
R 4  20733034.701   111024480.247        6862.882          49.500    20733042.070    86352406.791        5337.854          44.750  
R 9  22262587.268                         215.931          24.250    22262577.618                         169.380          20.000  
R10  21504760.202   114632468.209        2879.487          33.500                                                                  
R11  23370203.516                        6506.294          29.000    23370215.188    97131465.699        5060.495          33.750  
R18  21607695.376   115343350.440         971.581          47.500    21607706.455    89712109.465         755.692          42.250  
R19  19517132.831   104403491.074        3253.611          39.000    19517140.316    81202752.646        2530.716          43.750  
R20  21567510.412                        6653.751          29.500    21567530.797                        5175.122          26.500  
> 2023  6  6 12 55 51.0000000  0 25                     
E 7  26262460.538   138010283.732        4150.689          41.750    26262470.534   105748097.608        3180.265          36.750  
E 8  28396076.529                        1844.355          27.750    28396080.906   114339263.259        1413.355          34.250  
E12  25376115.750                        5692.631          27.750    25376133.460                        4362.107          30.250  
E24  25298635.741   132945239.865        4228.893          35.000    25298645.527   101867158.505        3240.399          36.000  
E26  25464816.625   133818503.057        1594.320          43.250    25464824.422   102536284.161        1221.599          43.750  
E31  25108196.910                        1609.824          32.250    25108206.463   101100336.630        1233.237          37.250  
E33  23321059.457   122552986.082        3501.824          50.000    23321065.477    93904267.755        2683.309          45.000  
G 1  22279406.979                        6697.866          28.500    22279421.975                        5218.792          23.000                                                                  
G 2  21495953.497   112961993.298        5180.648          47.000                                                                    21495953.969    88022358.987        4036.880          29.250  
G 8  20178675.432   106040315.568        3427.095          51.000    20178682.367    82628768.037        2670.480          45.250    20178680.729    82628322.065        2670.473          48.000  
G10  21520618.846   113092477.146        1955.862          49.750    21520625.543    88123918.292        1524.133          44.000    21520625.677    88123471.306        1524.063          48.750  
G14  24138710.062                        6420.003          34.500                                                                                                                                  
G21  20870044.441   109672817.117        4812.969          49.000                                                                    20870047.417    85459360.556        3750.368          32.000  
G23                                                                  24020006.364                         258.072          31.250                                                                  
G27  21253868.013   111689465.724        1214.171          48.750    21253874.805    87031685.146         946.056          43.250    21253917.119    87031483.278         945.998          13.000  
G32  23750187.087   124808091.185        6225.368          41.000    23750198.433    97253137.268        4850.801          38.750    23750198.309    97253128.237        4850.942          35.750  
R 2  23785215.667   126922469.073           5.403          41.000                                                                  
R 3  20651853.527   110551074.049        2949.060          50.500    20651860.667    85984072.832        2293.710          44.750  
R 4  20731753.092   111017617.792        6861.997          49.750    20731760.700    86347069.339        5337.099          46.000  
R 9  22262545.103                         216.252          23.500    22262538.062                         167.307          26.000  
R10  21504217.811   114629589.824        2878.721          32.250                                                                  
R11  23368987.907                        6505.738          28.750                                                                  
R18  21607513.547   115342379.029         971.119          46.500    21607524.189    89711353.903         755.455          44.000  
R19  19516524.097   104400237.990        3252.678          40.000    19516532.266    81200222.468        2529.926          44.750  
R20  21566268.077                        6654.052          34.250    21566285.273                        5175.139          33.250  
> 2023  6  6 12 55 52.0000000  0 24                     
E 7  26261670.495   138006133.221        4150.630          40.750    26261680.456   105744917.354        3180.222          36.750  
E 8  28395725.936                        1843.980          26.250    28395730.083   114337850.152        1413.462          34.500  
E12  25375033.716                        5692.825          28.500    25375050.228                        4362.098          30.500  
E24  25297830.487   132941010.873        4229.048          34.500    25297840.249   101863918.167        3240.392          36.250  
E26  25464513.123   133816908.760        1594.605          44.000    25464521.114   102535062.574        1221.489          44.250  
E31  25107889.437                        1609.573          32.500    25107900.235   101099103.187        1233.171          37.000  
E33  23320393.019   122549484.351        3501.832          49.750    23320399.118    93901584.616        2683.136          45.750  
G 1  22278131.887                        6697.502          29.500                                                                                                                                  
G 2  21494967.687   112956812.798        5180.612          46.750                                                                    21494968.197    88018322.232        4036.844          30.000  
G 8  20178023.313   106036888.744        3426.811          51.000    20178029.913    82626097.768        2670.314          45.750    20178028.630    82625651.802        2670.253          48.500  
G10  21520246.527   113090521.517        1955.641          49.500    21520253.474    88122394.417        1523.996          45.000    21520253.529    88121947.432        1523.878          48.750  
G21  20869128.675   109668004.276        4812.884          49.000                                                                    20869131.569    85455610.292        3750.295          33.000  
G23                                                                  24019943.551                         257.761          31.750                                                                  
G27  21253637.198   111688251.639        1214.117          48.500    21253643.798    87030739.108         946.037          43.750    21253686.176    87030537.354         945.967          13.500  
G32  23749002.369   124801865.972        6225.235          41.750    23749013.598    97248286.458        4850.736          40.250    23749013.722    97248277.421        4850.837          35.500  
R 2  23785214.929   126922464.118           5.098          41.000                                                                  
R 3  20651302.761   110548125.410        2948.413          51.000    20651310.009    85981779.464        2293.158          45.000  
R 4  20730471.697   111010756.188        6861.461          49.750    20730479.613    86341732.510        5336.649          45.750  
R 9  22262506.660                         214.727          26.000    22262497.366                         166.655          25.500  
R10  21503676.719   114626712.553        2877.446          31.750                                                                  
R11  23367771.670                        6504.299          30.750                                                                  
R18  21607331.772   115341407.997         971.210          47.000    21607342.041    89710598.686         755.307          43.000  
R19  19515916.356   104396985.502        3252.666          39.250    19515924.134    81197692.738        2529.807          45.000  
R20  21565025.250                        6653.376          34.250    21565039.094                        5174.712          33.750  
> 2023  6  6 12 55 53.0000000  0 24                     
E 7  26260880.680   138001983.336        4149.630          42.000    26260890.256   105741737.546        3179.840          37.500  
E 8  28395375.620                        1843.115          26.250    28395379.293   114336437.473        1412.689          33.500  
E12  25373951.629                        5692.715          27.750    25373967.501                        4361.736          27.500  
E24  25297025.947   132936782.738        4227.742          36.000    25297035.335   101860678.374        3239.718          35.500  
E26  25464209.804   133815314.692        1594.109          45.000    25464217.806   102533841.145        1221.546          42.750  
E31  25107582.670                        1608.922          32.500    25107594.101   101097870.091        1233.492          32.750  
E33  23319726.683   122545982.960        3501.508          49.000    23319732.838    93898901.728        2682.964          45.000  
G 1  22276856.987                        6697.404          26.000                                                                                                                                  
G 2  21493982.175   112951632.702        5180.196          47.000                                                                    21493982.501    88014285.797        4036.511          30.500  
G 8  20177371.374   106033462.576        3425.929          50.250    20177377.612    82623428.046        2669.779          44.500    20177376.646    82622982.051        2669.552          49.000  
G10  21519874.348   113088566.508        1954.897          49.000    21519881.583    88120871.053        1523.231          44.750    21519881.503    88120424.044        1523.300          49.000  
G21  20868213.013   109663191.899        4812.358          49.250                                                                    20868215.785    85451860.389        3749.890          33.750  
G23  24019873.739                         331.100          21.500    24019881.622                         257.267          31.250                                                                  
G27  21253406.326   111687038.087        1213.595          48.750    21253412.948    87029793.487         945.549          42.750    21253455.335    87029591.779         945.595          13.500  
G32  23747817.541   124795641.262        6224.748          41.500    23747829.310    97243436.041        4850.335          39.750    23747829.216    97243427.009        4850.438          36.000  
R 2  23785214.402   126922459.578           4.566          40.250                                                                  
R 3  20650752.222   110545177.798        2947.323          51.250    20650759.518    85979486.901        2292.315          44.500  
R 4  20729190.433   111003895.351        6860.624          48.750    20729198.281    86336396.296        5336.061          45.000  
R 9  22262468.636                         215.478          22.000    22262456.719                         166.289          25.000  
R10  21503135.206   114623836.380        2875.354          30.250                                                                  
R11  23366554.131                        6503.733          28.250    23366557.365    97116288.084        5058.751          28.750  
R18  21607149.780   115340437.357         970.525          46.250    21607160.233    89709843.702         754.980          42.500  
R19  19515308.463   104393733.543        3251.819          38.000    19515316.078    81195163.461        2529.178          43.500  
R20  21563781.991   115311217.4041       6652.647          34.000    21563795.029    89686571.3721       5174.191          33.000  
> 2023  6  6 12 55 54.0000000  0 25                     
E 7  26260091.081   137997833.457        4149.769          41.500    26260100.487   105738557.834        3179.487          37.250  
E 8  28395026.592                        1844.176          21.000    28395028.817   114335024.682        1412.472          34.750  
E12  25372868.598                        5693.033          25.750    25372885.860                        4362.064          25.750  
E24  25296221.118   132932554.621        4227.622          33.750    25296230.514   101857438.624        3239.587          37.250  
E26  25463906.270   133813720.276        1594.301          45.250    25463914.420   102532619.457        1221.589          42.250  
E31  25107276.359                        1609.127          30.000    25107287.621   101096637.008        1232.542          32.250  
E33  23319060.309   122542481.364        3501.429          49.500    23319066.553    93896218.675        2682.920          45.250  
G 1  22275580.388                        6697.441          29.500                                                                                                                                  
G 2  21492996.585   112946452.436        5180.118          47.750                                                                    21492996.786    88010249.227        4036.462          30.750  
G 8  20176719.448   106030036.523        3425.776          51.250    20176725.439    82620758.381        2669.475          43.750    20176724.692    82620312.401        2669.431          49.000  
G10  21519502.153   113086611.559        1954.648          49.500    21519509.777    88119347.699        1523.246          45.250    21519509.495    88118900.705        1523.105          49.000  
G14  24135037.333                        6419.189          41.250                                                                                                                                  
G21  20867297.118   109658379.426        4812.288          49.500                                                                    20867299.966    85448110.410        3749.836          34.250  
G23  24019811.678                         330.254          22.500    24019818.970                         257.792          31.500                                                                  
G27  21253175.385   111685824.486        1213.323          48.500    21253182.007    87028847.817         945.404          43.750    21253224.433    87028646.242         945.468          12.250  
G32  23746632.955   124789416.419        6224.521          43.000    23746644.943    97238585.505        4850.311          39.500    23746644.706    97238576.492        4850.286          36.250  
R 2  23785214.039                           4.498          40.500                                                                  
R 3  20650201.751   110542230.635        2946.597          51.250    20650208.583    85977194.629        2291.950          44.750  
R 4  20727908.929   110997034.774        6860.203          49.000    20727917.161    86331060.304        5335.698          44.750  
R 9  22262429.903                         214.336          24.750    22262420.105                         167.040          26.000  
R10  21502595.311   114620960.518        2875.637          32.000                                                                  
R11  23365335.010                        6503.213          37.000                                                                  
R18  21606968.045   115339466.456         970.568          47.000    21606977.701    89709088.589         754.836          41.750  
R19  19514700.108   104390481.566        3251.744          39.250    19514708.174    81192634.098        2529.126          43.750  
R20  21562536.872   115304563.931        6653.466          31.000    21562549.311    89681396.520        5174.609          32.000  
> 2023  6  6 12 55 55.0000000  0 24                     
E 7  26259301.406   137993684.437        4148.200          42.000    26259310.735   105735378.700        3178.307          37.500  
E 8                                                                  28394678.514   114333612.482        1411.509          33.500  
E12  25371785.195                        5692.331          24.750    25371802.659                        4361.506          24.500  
E24  25295416.632   132928327.139        4226.339          34.750    25295425.815   101854199.437        3238.635          34.500  
E26  25463602.656   133812126.306        1593.113          44.500    25463610.998   102531398.094        1220.546          42.500  
E31  25106970.004                        1608.647          27.500    25106981.404   101095404.455        1231.629          32.250  
E33  23318393.983   122538980.313        3500.174          49.000    23318400.312    93893536.075        2681.851          45.500  
G 2  21492011.012   112941272.803        5178.756          47.750                                                                    21492011.160    88006213.145        4035.396          31.250  
G 8  20176067.682   106026611.376        3424.074          51.250    20176073.597    82618089.430        2668.013          44.250    20176072.900    82617643.450        2668.122          49.000  
G10  21519130.387   113084657.470        1953.011          49.500    21519138.028    88117825.040        1521.884          45.750    21519137.648    88117378.045        1521.823          49.250  
G14  24133815.556   126824104.1651       6418.013          38.500    24133818.503                        5001.302          28.000    24133821.973                        5001.198          12.000  
G21  20866381.513   109653567.624        4810.896          50.000                                                                    20866384.276    85444360.952        3748.752          34.500  
G23  24019750.443                         329.102          23.000    24019756.359                         257.512          34.000                                                                  
G27  21252944.725   111684611.624        1211.845          49.500    21252951.329    87027902.722         944.354          44.000    21252993.474    87027701.228         944.070          12.000  
G32  23745448.708   124783192.188        6223.126          43.000    23745460.133    97233735.516        4849.122          39.250    23745460.316    97233726.455        4849.168          36.500  
R 2  23785213.740                           2.734          41.750                                                                  
R 3  20649651.156   110539284.703        2944.590          51.000    20649658.046    85974903.383        2290.319          43.500  
R 4  20726627.813   110990175.183        6858.478          50.000    20726635.961    86325725.081        5334.225          44.500  
R 9  22262389.493                         214.606          23.000    22262380.178                         164.896          25.000  
R10  21502056.816   114618085.867        2873.761          31.250                                                                  
R11  23364117.830   124850765.2071       6502.607          31.000    23364123.335    97106171.817        5057.096          33.500  
R18  21606786.286   115338496.155         969.279          46.500    21606795.662    89708333.915         754.095          42.250  
R19  19514092.338   104387230.367        3250.097          39.500    19514100.288    81190105.412        2527.991          44.000  
R20  21561293.149   115297911.119        6652.219          31.000    21561303.606    89676222.000        5174.480          32.000  
> 2023  6  6 12 55 56.0000000  0 25                     
E 7  26258511.816   137989535.744        4148.210          41.750    26258521.284   105732199.800        3178.614          38.250  
E 8                                                                  28394328.180   114332200.406        1411.693          34.000  
E12  25370703.322                        5692.012          24.250    25370719.489                        4362.270          26.500  
E24  25294612.621   132924100.119        4226.741          37.250    25294621.173   101850960.531        3238.555          38.000  
E26  25463299.270   133810532.263        1594.006          44.000    25463307.567   102530176.672        1221.290          42.000  
E31  25106663.671                        1608.028          29.500    25106675.541   101094172.033        1232.303          32.750  
E33  23317727.787   122535479.343        3500.945          49.750    23317734.027    93890853.503        2682.613          45.000  
G 1                                                                  22273027.458                        5218.721          23.500                                                                  
G 2  21491025.592   112936093.279        5179.563          48.250                                                                    21491025.587    88002177.157        4036.017          31.500  
G 8  20175415.974   106023186.558        3424.790          50.750    20175421.612    82615420.781        2668.583          44.250    20175421.165    82614974.756        2668.665          49.250  
G10  21518758.817   113082703.710        1953.630          50.000    21518766.191    88116302.627        1522.289          45.250    21518765.864    88115855.638        1522.306          49.500  
G14  24132594.423   126817685.746        6417.928          39.750    24132597.723                        5000.961          29.000    24132599.870    98818965.4501       5000.950          12.750  
G21  20865465.881   109648755.984        4811.584          49.750                                                                    20865468.599    85440611.625        3749.285          34.750  
G23  24019687.071                         327.687          19.500    24019693.671    98356629.2491        258.221          30.250                                                                  
G27  21252713.944   111683398.978        1212.630          48.750    21252720.638    87026957.795         944.853          43.250    21252762.564    87026756.483         944.782          12.500  
G32  23744264.256   124776968.199        6224.038          42.000    23744275.743    97228885.646        4849.566          40.250    23744275.971    97228876.604        4849.908          36.750  
R 2  23785213.521                           3.600          41.750                                                                  
R 3  20649100.587   110536339.500        2944.746          50.250    20649107.822    85972612.661        2290.479          44.250  
R 4  20725346.998   110983316.098        6858.862          49.000    20725354.899    86320390.239        5334.779          44.750  
R 9  22262349.718                         214.952          22.250    22262338.914                         166.434          25.250  
R10  21501517.949   114615211.850        2873.461          32.000                                                                  
R11  23362898.280   124844262.839        6502.037          34.250    23362906.057    97101114.494        5056.711          32.750  
R18  21606604.564   115337525.897         970.419          46.750    21606613.684    89707579.292         754.438          42.250  
R19  19513484.537   104383979.421        3250.728          39.500    19513492.559    81187576.905        2528.545          43.750  
R20  21560051.285   115291258.275        6652.541          34.000    21560059.400    89671047.623        5174.534          33.500  
> 2023  6  6 12 55 57.0000000  0 25                     
E 7  26257722.333   137985386.921        4148.435          41.750    26257732.105   105729020.812        3178.746          38.500  
E 8  28393981.355                        1841.664          22.750    28393977.332   114330788.188        1411.911          33.500  
E12  25369618.560                        5693.242          22.750    25369636.520                        4361.820          25.250  
E24  25293808.333   132919873.030        4226.765          38.000    25293816.831   101847721.610        3238.665          41.000  
E26  25462995.848   133808937.719        1594.248          43.500    25463004.082   102528954.895        1221.596          42.250  
E31  25106356.971                        1608.231          26.750    25106369.539   101092939.470        1232.282          34.000  
E33  23317061.596   122531978.049        3501.010          50.500    23317067.778    93888170.696        2682.579          46.000  
G 1  22271754.468                        6697.046          24.250    22271755.885                        5218.898          28.250                                                                  
G 2  21490039.930   112930913.488        5179.459          49.250                                                                    21490039.961    87998140.959        4035.936          32.250  
G 8  20174764.119   106019761.750        3424.349          50.750    20174769.627    82612752.076        2668.293          43.250    20174769.426    82612306.088        2668.324          49.250  
G10  21518387.458   113080749.890        1953.341          50.250    21518394.415    88114780.177        1522.087          45.000    21518394.062    88114333.181        1522.083          49.500  
G14  24131372.937   126811267.306        6418.181          39.250    24131375.517                        5001.054          28.750    24131377.793    98813964.095        5001.157          12.750  
G21  20864550.061   109643944.136        4811.477          50.500                                                                    20864552.887    85436862.140        3749.201          35.500  
G23  24019627.541                         329.433          22.000    24019630.688    98356371.636         257.249          33.500                                                                  
G27  21252483.119   111682186.182        1212.464          49.000    21252489.504    87026012.767         944.794          43.250    21252531.605    87025811.511         944.738          14.500  
G32  23743079.674   124770743.966        6223.829          41.750    23743091.505    97224035.608        4849.727          40.250    23743091.568    97224026.563        4849.722          37.000  
R 2  23785212.890   126922443.802           3.464          41.000                                                                  
R 3  20648550.140   110533394.639        2944.264          50.000    20648557.365    85970322.209        2289.950          44.500  
R 4  20724066.150   110976457.081        6858.545          49.250    20724074.034    86315055.434        5334.389          46.000  
R 9  22262308.838                         213.585          27.750    22262300.641                         166.627          25.000  
R10  21500977.920   114612338.211        2873.503          33.500                                                                  
R11  23361679.436   124837760.670        6501.407          30.750    23361689.494    97096057.271        5056.631          34.250  
R18  21606422.703   115336555.318         970.343          46.250    21606432.114    89706824.360         754.763          43.750  
R19  19512876.647   104380728.350        3250.648          38.750    19512884.727    81185048.320        2528.230          44.250  
R20  21558807.700   115284605.058        6653.041          33.000    21558815.689    89665872.950        5174.422          33.500  
> 2023  6  6 12 55 58.0000000  0 25                     
E 7  26256933.087   137981238.813        4147.776          41.750    26256942.917   105725842.392        3178.314          37.250  
E 8                                                                  28393626.458   114329376.458        1411.654          32.750  
E12                                                                  25368553.895                        4361.467          26.750  
E24  25293004.094   132915646.638        4226.005          37.000    25293012.721   101844483.209        3238.049          40.500  
E26  25462692.493   133807343.475        1594.080          43.000    25462700.656   102527733.313        1221.662          42.250  
E31  25106050.607                        1608.672          27.500    25106063.590   101091707.273        1231.988          34.750  
E33  23316395.490   122528477.170        3500.607          50.500    23316401.703    93885488.206        2682.319          45.750  
G 1  22270484.299                        6696.637          23.250    22270483.516                        5218.433          27.750                                                                  
G 2  21489054.197   112925734.184        5179.049          48.500                                                                    21489054.415    87994105.142        4035.616          33.000  
G 8  20174112.447   106016337.641        3423.796          50.750    20174117.768    82610083.954        2667.875          43.250    20174117.799    82609637.949        2667.896          49.250  
G10  21518016.063   113078796.782        1952.794          50.250    21518022.752    88113258.256        1521.625          44.750    21518022.399    88112811.276        1521.658          49.750  
G14  24130151.607   126804849.591        6417.128          39.500    24130155.211                        5000.609          33.250    24130156.401    98808963.294        5000.356          14.250  
G21  20863634.416   109639132.829        4811.081          50.250                                                                    20863637.300    85433113.075        3748.887          36.250  
G23                                                                  24019567.987    98356114.344         257.674          32.500                                                                  
G27  21252252.531   111680973.911        1212.064          49.000    21252258.728    87025068.126         944.430          43.750    21252300.565    87024866.919         944.439          16.750  
G32  23741894.890   124764520.229        6223.432          41.750    23741907.375    97219185.897        4849.459          40.000    23741907.250    97219176.908        4849.424          37.000  
R 2  23785212.389   126922440.727           2.648          40.500                                                                  
R 3  20647999.951   110530450.886        2943.260          50.000    20648007.239    85968032.652        2289.102          44.000  
R 4  20722785.625   110969598.827        6858.009          49.250    20722793.429    86309721.260        5333.951          46.000  
R 9  22262267.936                         213.009          26.250    22262262.963                         166.547          25.500  
R10  21500438.495   114609465.639        2871.921          36.000                                                                  
R11  23360461.353   124831259.669        6500.032          35.500    23360473.682    97091000.871        5055.788          39.500  
R18  21606240.771   115335585.119         970.195          45.750    21606250.522    89706069.798         754.360          43.500  
R19  19512268.940   104377477.936        3249.968          38.500    19512277.078    81182520.201        2527.847          43.750  
R20  21557563.994   115277952.253        6652.175          30.250    21557571.138    89660698.553        5174.162          32.750  
> 2023  6  6 12 55 59.0000000  0 25                     
E 7  26256144.230   137977091.431        4146.513          42.500    26256153.068   105722664.564        3177.069          35.500  
E 8                                                                  28393275.122   114327965.161        1410.784          32.250  
E12  25367448.741                        5691.876          28.750    25367471.132                        4361.259          27.250  
E24  25292200.472   132911420.935        4224.686          38.000    25292208.826   101841245.325        3237.118          39.750  
E26  25462389.196   133805749.636        1592.968          44.000    25462397.457   102526512.060        1220.608          43.250  
E31  25105743.988                        1606.960          32.500    25105758.062   101090475.588        1231.101          37.000  
E33  23315729.419   122524976.771        3499.650          50.250    23315735.833    93882806.081        2681.527          45.750  
G 1  22269206.654                        6695.498          22.250                                                                                                                                  
G 2  21488068.419   112920555.414        5177.987          48.000                                                                    21488068.977    87990069.741        4034.792          33.250  
G 8  20173460.712   106012914.346        3422.345          50.500    20173466.065    82607416.460        2666.749          42.500    20173466.333    82606970.452        2666.748          49.000  
G10  21517644.297   113076844.424        1951.392          49.000    21517651.124    88111736.947        1520.605          44.500    21517650.874    88111289.949        1520.573          49.500  
G14  24128930.483   126798432.438        6415.788          38.750    24128934.865                        5000.147          33.750    24128935.321    98803962.888        4999.329          15.750  
G21  20862718.820   109634322.103        4809.845          50.250                                                                    20862721.838    85429364.464        3747.922          36.500  
G23                                                                  24019504.732    98355857.332         256.581          31.500                                                                  
G27  21252022.050   111679762.396        1210.605          48.750    21252028.270    87024124.099         943.351          43.500    21252069.816    87023922.912         943.321          18.750  
G32  23740710.366   124758297.134        6222.396          41.250    23740722.945    97214336.764        4848.256          40.000    23740723.039    97214327.744        4848.624          37.250  
R 2  23785210.985   126922438.167           1.477          39.750                                                                  
R 3  20647450.116   110527508.327        2941.274          50.250    20647456.724    85965744.020        2287.751          41.750  
R 4  20721505.127   110962741.630        6856.208          48.750    20721512.832    86304387.871        5332.542          45.000  
R 9                                                                  22262224.906                         164.849          26.500  
R10  21499900.161   114606594.105        2870.535          36.750                                                                  
R11  23359245.957   124824759.274        6499.396          38.250    23359257.785    97085945.048        5055.085          39.250  
R18  21606059.111   115334615.526         968.846          45.750    21606069.188    89705315.648         753.552          42.500  
R19  19511661.296   104374228.198        3248.748          39.000    19511669.617    81179992.622        2526.846          43.000  
R20  21556320.271   115271299.800        6651.595          29.500    21556325.912    89655524.418        5173.863          30.750  
> 2023  6  6 12 56  0.0000000  0 25                     
E 7  26255355.271   137972944.789        4146.640          42.500    26255363.822   105719487.259        3177.059          36.000  
E 8                                                                  28392923.984   114326554.299        1411.175          33.250  
E12  25366366.353                        5691.851          28.500    25366388.060                        4361.226          27.000  
E24  25291396.921   132907195.976        4225.089          39.000    25291405.151   101838008.043        3237.189          40.000  
E26  25462085.922   133804156.109        1593.674          43.750    25462094.474   102525291.053        1221.064          43.000  
E31  25105438.889   131929969.7881       1607.028          34.250    25105452.266   101089244.402        1231.144          37.000  
E33  23315063.085   122521476.884        3499.985          49.750    23315069.937    93880124.357        2681.795          45.500  
G 1                                                                  22267939.467                        5217.016          21.750                                                                  
G 2  21487082.721   112915377.228        5178.200          47.750                                                                    21487083.651    87986034.794        4034.951          33.500  
G 8  20172809.233   106009491.848        3422.429          50.500    20172814.563    82604749.582        2666.928          42.750    20172815.023    82604303.578        2666.820          48.750  
G10  21517272.758   113074892.839        1951.594          49.500    21517279.676    88110216.238        1520.771          44.750    21517279.501    88109769.230        1520.723          49.500  
G14  24127708.711   126792015.983        6416.362          38.250    24127714.720    98798957.1831       4999.759          34.000    24127714.354    98798963.053        4999.764          16.500  
G21  20861803.434   109629511.997        4810.158          50.250                                                                    20861806.493    85425616.334        3748.169          36.750  
G23                                                                  24019442.630    98355600.725         256.565          30.500                                                                  
G27  21251791.699   111678551.522        1210.978          48.750    21251797.937    87023180.541         943.612          43.250    21251839.196    87022979.360         943.665          19.250  
G32  23739526.263   124752074.622        6222.283          42.000    23739539.203    97209488.044        4848.584          40.000    23739538.949    97209479.040        4848.524          37.000  
R 2  23785210.198   126922436.283           1.854          40.000                                                                  
R 3  20646900.460   110524566.940        2941.116          49.750    20646907.010    85963456.258        2287.547          43.000  
R 4  20720224.843   110955885.350        6856.179          48.750    20720232.763    86299055.214        5332.613          45.000  
R 9                                                                  22262186.065                         164.498          26.000  
R10  21499361.724   114603723.773        2870.208          37.250                                                                  
R11  23358030.409   124818259.846        6499.252          38.000    23358041.531    97080889.933        5054.911          38.750  
R18  21605877.765   115333646.371         969.319          46.250    21605887.493    89704561.850         754.052          42.500  
R19  19511054.063   104370979.173        3248.867          39.000    19511062.330    81177465.596        2526.907          43.250  
R20  21555075.921   115264647.945        6651.881          29.750    21555081.384    89650350.693        5173.609          30.500  
> 2023  6  6 12 56  1.0000000  0 25                     
E 7  26254566.731   137968798.837        4145.507          42.750    26254574.961   105716310.503        3176.402          36.250  
E 8                                                                  28392573.292   114325143.908        1410.098          33.500  
E12  25365283.581                        5690.770          28.000    25365305.592                        4360.607          26.250  
E24  25290593.594   132902971.787        4223.632          38.500    25290601.560   101834771.304        3236.311          41.000  
E26  25461782.589   133802562.896        1592.888          43.750    25461791.427   102524070.284        1220.492          43.250  
E31  25105133.321   131928363.660        1605.747          28.250    25105146.693   101088013.680        1230.580          35.250  
E33  23314396.992   122517977.400        3499.026          50.000    23314404.055    93877442.938        2681.150          46.250  
G 1  22266652.843                        6695.166          22.250                                                                                                                                  
G 2  21486097.202   112910199.485        5177.266          48.250                                                                    21486098.409    87982000.192        4034.229          33.750  
G 8  20172157.945   106006070.082        3421.226          50.750    20172163.298    82602083.271        2665.906          42.750    20172163.848    82601637.269        2665.890          48.750  
G10  21516901.551   113072941.976        1950.257          49.500    21516908.464    88108696.098        1519.745          44.750    21516908.263    88108249.081        1519.677          49.250  
G14  24126487.873   126785600.222        6415.137          38.500    24126493.417    98793957.749        4999.021          33.500    24126493.565    98793963.757        4998.822          16.500  
G21  20860888.062   109624702.412        4809.103          49.750                                                                    20860891.241    85421868.609        3747.356          36.750  
G23                                                                  24019378.967    98355344.468         255.431          30.250                                                                  
G27  21251561.214   111677341.239        1209.772          48.500    21251567.559    87022237.477         942.636          43.250    21251608.939    87022036.215         942.736          18.750  
G32  23738342.338   124745852.625        6221.507          41.250    23738354.724    97204639.744        4847.878          39.000    23738354.984    97204630.741        4847.913          37.250  
R 2  23785209.684   126922435.014           0.612          40.250                                                                  
R 3  20646351.112   110521626.646        2939.640          50.250    20646357.810    85961169.365        2286.299          42.000  
R 4  20718944.667   110949029.880        6854.822          49.250    20718952.390    86293723.199        5331.534          45.000  
R 9  22262141.340                         211.262          25.500    22262148.767                         164.260          24.500  
R10  21498823.658   114600854.540        2868.589          37.250                                                                  
R11  23356814.257   124811761.284        6498.038          38.250    23356825.974    97075835.452        5054.211          39.500  
R18  21605696.431   115332677.654         968.374          45.750    21605706.133    89703808.420         753.234          42.000  
R19  19510447.000   104367730.733        3247.962          39.250    19510454.887    81174939.035        2526.250          43.250  
R20  21553831.191   115257996.388        6650.436          28.750    21553836.014    89645177.333        5173.113          30.500  
> 2023  6  6 12 56  2.0000000  0 25                     
E 7  26253778.250   137964653.296        4145.688          42.000    26253785.849   105713134.028        3176.115          35.000  
E 8                                                                  28392222.797   114323733.727        1410.268          33.750  
E12  25364200.286                        5691.090          28.750    25364222.847                        4360.320          27.250  
E24  25289790.057   132898747.912        4223.802          39.500    25289797.942   101831534.859        3236.262          40.000  
E26  25461479.226   133800969.664        1593.578          43.000    25461488.323   102522849.493        1221.004          43.000  
E31  25104826.067   131926757.570        1605.111          26.500    25104841.424   101086783.069        1230.877          34.750  
E33  23313731.123   122514478.081        3499.448          49.750    23313738.248    93874761.631        2681.431          45.750  
G 1  22265378.761                        6694.498          25.500                                                                                                                                  
G 2  21485111.844   112905021.958        5177.619          47.750                                                                    21485113.190    87977965.758        4034.502          33.750  
G 8  20171506.730   106002648.784        3421.298          50.250    20171512.153    82599417.330        2665.871          43.000    20171512.770    82598971.327        2665.944          48.750  
G10  21516530.532   113070991.518        1950.564          49.250    21516537.190    88107176.265        1519.872          44.500    21516537.114    88106729.250        1519.910          49.250  
G14  24125267.339   126779184.731        6416.029          40.000    24125272.137    98788958.774        4998.803          32.250    24125272.691    98788964.674        4999.479          16.500  
G21  20859972.882   109619893.092        4809.438          49.750                                                                    20859976.047    85418121.091        3747.610          36.750  
G23                                                                  24019316.119    98355088.293         256.566          30.500                                                                  
G27  21251330.889   111676131.279        1209.980          48.750    21251337.221    87021294.630         942.891          42.750    21251378.507    87021093.332         942.882          18.000  
G32  23737158.548   124739630.908        6221.513          42.500    23737170.442    97199791.648        4848.226          39.500    23737171.055    97199782.653        4847.930          37.000  
R 2  23785209.197   126922434.057           1.049          39.750                                                                  
R 3  20645802.109   110518687.178        2939.248          50.250    20645808.136    85958883.083        2286.067          41.250  
R 4  20717664.714   110942175.027        6854.678          49.250    20717672.232    86288391.633        5331.593          45.000  
R 9  22262099.642                         210.275          27.250    22262109.748                         163.651          24.500  
R10  21498286.013   114597986.061        2868.016          38.000                                                                  
R11  23355598.293   124805263.276        6497.626          38.500    23355609.303    97070781.485        5053.847          39.500  
R18  21605515.027   115331709.113         968.658          46.250    21605524.625    89703055.100         753.359          42.000  
R19  19509839.637   104364482.671        3248.041          39.000    19509847.686    81172412.763        2526.257          43.000  
R20  21552586.528   115251344.896        6651.714          30.250    21552593.458    89640003.931        5173.755          30.500  
> 2023  6  6 12 56  3.0000000  0 25                     
E 7  26252989.424   137960508.296        4144.408          42.000    26252997.149   105709958.006        3175.383          36.000  
E 8                                                                  28391872.464   114322323.907        1409.156          33.750  
E12  25363117.371                        5690.987          25.250    25363139.355                        4360.603          28.000  
E24  25288986.699   132894524.654        4222.911          39.000    25288994.240   101828298.827        3235.688          38.500  
E26  25461176.108   133799376.637        1592.739          43.500    25461185.116   102521628.842        1220.366          43.000  
E31  25104521.804   131925152.089        1605.166          33.000    25104535.896   101085552.884        1230.041          36.750  
E33  23313065.244   122510979.054        3498.686          49.500    23313072.378    93872080.556        2680.747          45.500  
G 1  22264104.228                        6694.556          26.000                                                                                                                                  
G 2  21484126.652   112899844.765        5176.743          48.250                                                                    21484128.056    87973931.581        4033.823          33.750  
G 8  20170855.675   105999228.122        3420.133          50.500    20170861.215    82596751.864        2665.067          41.750    20170861.823    82596305.877        2665.040          48.750  
G10  21516159.736   113069041.666        1949.410          50.000    21516166.134    88105656.883        1518.943          44.250    21516166.067    88105209.887        1519.023          49.250  
G14  24124046.514   126772769.836        6414.620          39.000    24124052.148    98783960.031        4998.245          34.250    24124051.947    98783966.050        4998.422          17.000  
G21  20859057.778   109615084.172        4808.503          50.750                                                                    20859060.925    85414373.882        3746.889          37.000  
G23                                                                  24019253.158    98354832.295         255.807          28.500                                                                  
G27  21251100.552   111674921.793        1209.052          48.500    21251107.151    87020352.192         942.060          42.500    21251148.129    87020150.831         942.167          18.250  
G32  23735974.739   124733409.565        6220.905          42.250    23735986.611    97194943.869        4847.611          39.250    23735987.184    97194934.856        4847.451          37.250  
R 2  23785208.486   126922433.666          -0.074          39.250    23785272.481                           0.142          22.500  
R 3  20645253.034   110515748.696        2937.774          50.000    20645259.409    85956597.630        2284.904          42.500  
R 4  20716384.838   110935320.857        6853.569          48.750    20716392.189    86283060.630        5330.626          44.500  
R 9                                                                  22262069.409                         163.665          27.000  
R10  21497749.083   114595118.548        2866.764          37.500                                                                  
R11  23354382.839   124798765.983        6496.737          39.500    23354392.928    97065728.089        5052.884          37.250  
R18  21605333.653   115330740.843         967.941          46.000    21605343.113    89702302.010         752.807          42.500  
R19  19509232.771   104361235.101        3246.959          39.500    19509240.556    81169886.867        2525.538          42.500  
R20  21551342.630   115244693.688        6651.362          30.250    21551349.274    89634830.818        5172.624          29.000  
> 2023  6  6 12 56  4.0000000  0 25                     
E 7  26252200.711   137956363.177        4144.950          42.500    26252208.015   105706781.883        3175.910          35.250  
E 8                                                                  28391522.121   114320913.843        1410.245          33.250  
E12  25362034.702                        5691.560          26.750    25362055.800                        4360.951          28.000  
E24  25288183.050   132890301.275        4222.982          40.000    25288190.792   101825062.759        3235.858          39.250  
E26  25460872.793   133797783.095        1593.375          43.750    25460881.846   102520407.817        1221.008          43.000  
E31  25104216.687   131923546.296        1605.432          33.000    25104230.095   101084322.497        1230.104          36.500  
E33  23312399.286   122507479.687        3499.166          49.750    23312406.451    93869399.226        2681.259          45.250  
G 1  22262830.478                        6694.750          29.500                                                                                                                                  
G 2  21483141.299   112894667.292        5177.313          47.250                                                                    21483142.845    87969897.189        4034.266          33.750  
G 8  20170204.745   105995807.421        3420.342          50.250    20170210.330    82594086.378        2665.223          42.250    20170210.857    82593640.398        2665.195          48.500  
G10  21515788.757   113067091.723        1949.631          49.750    21515795.119    88104137.432        1519.129          44.500    21515794.999    88103690.448        1519.194          49.250  
G14  24122825.636   126766354.727        6414.823          39.250    24122831.816    98778961.228        4998.842          33.250    24122831.337    98778967.254        4998.533          17.500  
G21  20858142.606   109610275.002        4808.904          50.000                                                                    20858145.736    85410626.476        3747.189          37.000  
G23                                                                  24019190.140    98354576.093         256.186          29.000                                                                  
G27  21250870.326   111673712.118        1209.512          48.500    21250877.028    87019409.575         942.434          42.750    21250917.836    87019208.224         942.490          18.500  
G32  23734791.034   124727187.970        6221.382          42.250    23734802.870    97190095.885        4847.954          39.000    23734803.277    97190086.868        4847.817          37.250  
R 2  23785207.614   126922433.044           0.140          39.000                                                                  
R 3  20644704.173   110512810.542        2937.639          50.000    20644710.679    85954312.437        2284.800          42.500  
R 4  20715104.867   110928466.766        6853.764          49.250    20715112.071    86277729.684        5330.668          44.250  
R 9                                                                  22262028.400                         164.044          26.750  
R10  21497212.385   114592251.309        2866.800          38.250                                                                  
R11  23353167.188   124792268.745        6496.724          39.250    23353176.835    97060674.706        5053.097          39.250  
R18  21605151.725   115329772.206         968.679          44.500    21605161.682    89701548.626         753.267          43.000  
R19  19508625.905   104357987.359        3247.447          39.250    19508633.354    81167360.850        2525.796          42.750  
R20  21550097.914   115238042.133        6651.608          31.500    21550105.425    89629657.363        5173.092          30.250  
> 2023  6  6 12 56  5.0000000  0 25                     
E 7  26251412.154   137952218.528        4143.698          42.250    26251418.796   105703606.117        3175.041          35.750  
E 8                                                                  28391171.702   114319504.066        1409.493          32.750  
E12  25360951.183                        5691.889          27.500    25360972.277                        4361.399          29.250  
E24  25287379.191   132886078.366        4222.311          38.250    25287387.179   101821827.030        3235.087          40.000  
E26  25460569.613   133796189.610        1592.762          43.500    25460578.562   102519186.828        1220.437          43.500  
E31  25103911.325   131921940.843        1604.793          32.250    25103924.473   101083092.354        1229.629          36.250  
E33  23311733.398   122503980.463        3498.472          49.500    23311740.550    93866718.007        2680.699          45.500  
G 1  22261557.769                        6694.896          25.250                                                                                                                                  
G 2  21482156.066   112889490.029        5176.512          47.750                                                                    21482157.689    87965862.964        4033.640          33.750  
G 8  20169553.847   105992387.194        3419.267          50.000    20169559.633    82591421.273        2664.366          43.500    20169559.981    82590975.282        2664.361          48.750  
G10  21515417.818   113065142.211        1948.621          49.500    21515424.230    88102618.333        1518.409          45.500    21515424.015    88102171.341        1518.408          49.250  
G14  24121604.807   126759939.972        6413.954          39.000    24121610.562    98773962.729        4998.132          33.250    24121610.781    98773968.743        4997.886          17.750  
G21  20857227.516   109605466.122        4808.059          50.000                                                                    20857230.614    85406879.295        3746.539          37.000  
G23                                                                  24019127.725    98354319.971         255.524          32.250                                                                  
G27  21250640.033   111672502.769        1208.549          48.750    21250646.959    87018467.224         941.565          43.500    21250687.923    87018265.881         941.720          17.750  
G32  23733607.131   124720966.646        6220.502          41.250    23733619.066    97185248.138        4847.124          39.500    23733619.415    97185239.090        4847.137          37.250  
R 2  23785207.265   126922432.657          -0.337          38.750                                                                  
R 3  20644155.590   110509873.260        2936.180          49.750    20644162.172    85952027.821        2283.742          42.750  
R 4  20713824.892   110921613.293        6852.538          48.750    20713832.154    86272399.216        5329.631          45.250  
R 9  22261976.038                         210.013          28.250    22261990.074                         164.011          25.250  
R10  21496675.808   114589384.954        2865.294          38.250                                                                  
R11  23351951.314   124785772.157        6495.776          38.750    23351961.425    97055621.779        5052.341          40.500  
R18  21604970.253   115328803.726         967.704          45.250    21604980.710    89700795.366         752.763          44.000  
R19  19508018.828   104354739.970        3246.575          39.500    19508026.295    81164835.113        2525.064          43.500  
R20  21548854.069   115231390.641        6650.912          27.750    21548861.486    89624483.994        5172.685          31.000  
> 2023  6  6 12 56  6.0000000  0 25                     
E 7  26250623.529   137948074.432        4144.169          42.000    26250629.693   105700430.754        3175.417          34.500  
E 8                                                                  28390821.485   114318094.657        1409.608          33.250  
E12  25359867.083                        5691.519          26.750    25359888.682                        4360.585          30.250  
E24  25286575.720   132881856.046        4222.543          39.000    25286583.686   101818591.744        3235.368          39.500  
E26  25460266.620   133794596.322        1593.328          43.500    25460275.324   102517965.986        1220.986          43.750  
E31  25103606.977   131920335.882        1604.896          33.250    25103619.138   101081862.547        1230.039          36.000  
E33  23311067.507   122500481.581        3499.084          49.250    23311074.636    93864037.039        2681.194          45.500  
G 1  22260285.534                        6694.527          21.250                                                                                                                                  
G 2  21481170.963   112884313.171        5177.023          47.500                                                                    21481172.595    87961829.052        4034.039          34.000  
G 8  20168903.011   105988967.636        3419.654          50.000    20168909.262    82588756.700        2664.601          43.500    20168909.240    82588310.690        2664.665          48.750  
G10  21515047.089   113063193.311        1948.982          50.000    21515053.528    88101099.720        1518.634          46.000    21515053.161    88100652.716        1518.687          49.500  
G14  24120384.251   126753525.750        6414.290          38.750    24120390.006    98768964.629        4998.097          35.500    24120390.305    98768970.641        4998.156          18.250  
G21  20856312.532   109600657.680        4808.599          50.000                                                                    20856315.595    85403132.458        3746.962          37.250  
G23                                                                  24019066.115    98354064.052         256.393          31.000                                                                  
G27  21250409.936   111671293.945        1208.940          48.250    21250417.158    87017525.282         941.991          43.500    21250458.203    87017323.913         942.066          16.750  
G32  23732422.621   124714745.788        6220.916          41.250    23732435.070    97180400.710        4847.498          39.500    23732435.655    97180391.685        4847.453          37.250  
R 2  23785206.706   126922432.784           0.164          37.250    23785222.175                          -0.479          27.500  
R 3  20643607.141   110506936.942        2936.173          50.000    20643613.857    85949744.055        2283.666          42.750  
R 4  20712545.073   110914760.639        6852.631          48.750    20712552.286    86267069.355        5329.823          45.000  
R 9  22261936.026                         209.408          28.750    22261950.835                         163.037          26.500  
R10  21496138.404   114586519.545        2865.175          38.000                                                                  
R11  23350735.413   124779276.342        6495.833          38.250    23350746.056    97050569.476        5052.506          40.000  
R18  21604788.965   115327835.653         968.428          45.250    21604799.632    89700042.405         753.118          44.500  
R19  19507411.108   104351493.148        3246.979          39.250    19507419.349    81162309.799        2525.385          43.500  
R20  21547609.514   115224739.409        6651.335          27.000    21547617.749    89619310.843        5173.389          30.250  
> 2023  6  6 12 56  7.0000000  0 25                     
E 7  26249834.874   137943930.842        4142.978          42.500    26249841.037   105697255.731        3175.244          35.250  
E 8                                                                  28390471.804   114316685.503        1408.940          33.500  
E12  25358782.567                        5691.176          26.500    25358804.707                        4360.394          29.750  
E24  25285772.309   132877634.193        4221.285          38.750    25285780.310   101815356.813        3234.541          39.250  
E26  25459963.498   133793003.101        1592.871          43.250    25459972.161   102516745.227        1220.521          43.250  
E31  25103302.254   131918731.299        1604.100          36.000    25103313.855   101080633.051        1229.027          37.250  
E33  23310401.776   122496982.929        3498.275          49.750    23310408.821    93861356.250        2680.564          45.250  
G 1  22259010.447                        6693.690          26.250                                                                                                                                  
G 2  21480185.865   112879136.605        5176.201          47.500                                                                    21480187.532    87957795.372        4033.401          34.000  
G 8  20168252.408   105985548.635        3418.469          50.250    20168258.815    82586092.524        2663.819          43.250    20168258.610    82585646.536        2663.752          49.000  
G10  21514676.449   113061244.938        1947.857          50.000    21514682.821    88099581.496        1517.878          45.500    21514682.410    88099134.503        1517.816          49.750  
G14  24119164.053   126747111.932        6413.383          38.000    24119170.111    98763966.899        4997.252          36.000    24119169.807    98763972.864        4997.431          18.500  
G21  20855397.540   109595849.556        4807.752          50.000                                                                    20855400.643    85399385.866        3746.297          37.250  
G23                                                                  24019004.487    98353808.343         255.780          31.250                                                                  
G27  21250179.970   111670085.525        1207.899          48.250    21250187.196    87016583.659         941.358          43.250    21250228.330    87016382.317         941.138          15.500  
G32  23731238.951   124708525.235        6220.141          41.750    23731251.123    97175553.538        4847.155          39.250    23731251.945    97175544.510        4846.855          37.250  
R 2  23785206.245   126922433.371          -1.021          37.250    23785224.040                          -0.023          25.000  
R 3  20643058.889   110504001.533        2934.572          50.250    20643066.056    85947460.936        2282.437          43.500  
R 4  20711265.147   110907908.636        6851.382          48.750    20711272.655    86261740.038        5328.797          44.750  
R 9  22261898.250                         209.195          30.750    22261911.503                         162.604          29.000  
R10  21495601.823   114583655.050        2863.704          38.000                                                                  
R11  23349520.258   124772781.118        6494.573          39.500    23349530.674    97045517.653        5051.359          40.000  
R18  21604607.417   115326867.787         967.300          45.250    21604618.683    89699289.595         752.581          44.000  
R19  19506804.005   104348246.742        3246.188          39.000    19506812.889    81159784.813        2524.665          43.500  
R20  21546365.755   115218088.377        6650.887          28.000    21546373.033    89614137.811        5172.790          31.000  
> 2023  6  6 12 56  8.0000000  0 26                     
E 7  26249046.406   137939788.068        4142.320          42.250    26249052.963   105694081.470        3173.948          35.500  
E 8                                                                  28390122.235   114315276.913        1408.328          33.000  
E12  25357699.835                        5690.477          26.250    25357720.540                        4360.167          30.500  
E24  25284969.178   132873413.227        4220.534          39.250    25284977.113   101812122.607        3233.809          39.250  
E26  25459660.290   133791410.383        1592.554          43.250    25459669.142   102515524.817        1220.166          43.500  
E31  25102997.043   131917127.387        1603.714          35.750    25103008.412   101079404.097        1228.499          37.500  
E33  23309736.215   122493484.892        3497.716          49.750    23309743.027    93858675.928        2680.105          45.500  
G 1  22257737.049                        6692.995          24.750                                                                                                                                  
G 2  21479200.856   112873960.686        5175.564          48.250                                                                    21479202.622    87953762.192        4032.905          34.000  
G 8  20167602.077   105982130.545        3417.555          50.000    20167608.190    82583429.074        2663.185          43.000    20167608.141    82582983.087        2663.031          49.000  
G10  21514305.882   113059297.418        1947.041          50.250    21514312.191    88098063.955        1517.021          45.500    21514311.820    88097616.952        1517.179          49.750  
G14  24117943.841   126740698.980        6412.725          39.250    24117949.832    98758969.776        4996.965          35.250    24117949.609    98758975.766        4996.917          19.250  
G21  20854482.740   109591042.168        4807.063          50.250                                                                    20854485.825    85395639.852        3745.768          37.250  
G23                                                                  24018941.902    98353553.096         254.807          32.250                                                                  
G27  21249950.120   111668877.857        1207.309          48.500    21249957.140    87015642.625         940.743          43.000    21249998.641    87015441.240         940.892          13.750  
G30  25640468.220                        1810.279          18.250                                                                                                                                  
G32  23730055.603   124702305.395        6219.459          42.000    23730067.489    97170706.938        4846.482          39.500    23730068.361    97170697.892        4846.329          37.500  
R 2  23785206.791   126922434.744          -1.878          38.500                                                                  
R 3  20642511.120   110501067.378        2933.382          50.500    20642518.086    85945178.789        2281.889          42.750  
R 4  20709985.637   110901057.663        6850.459          49.000    20709993.056    86256411.500        5328.108          44.750  
R 9  22261859.731                         208.514          28.500    22261871.840                         161.778          28.000  
R10  21495065.081   114580791.768        2862.700          37.000                                                                  
R11  23348305.367   124766287.035        6493.483          39.500    23348315.483    97040466.662        5050.749          40.500  
R18  21604426.128   115325900.531         966.908          45.750    21604437.636    89698537.317         752.062          44.250  
R19  19506197.326   104345001.168        3245.334          39.250    19506205.782    81157260.483        2524.014          43.250  
R20  21545122.187   115211437.870        6650.250          25.250    21545128.214    89608965.215        5172.841          29.250  
> 2023  6  6 12 56  9.0000000  0 25                     
E 7  26248257.983   137935645.894        4141.600          42.000    26248265.314   105690907.573        3173.614          36.750  
E 8                                                                  28389772.894   114313868.684        1407.914          33.500  
E12  25356617.832                        5689.551          26.250    25356636.288                        4360.155          30.750  
E24  25284165.972   132869192.822        4219.920          40.000    25284174.135   101808888.777        3233.522          39.250  
E26  25459357.190   133789817.810        1592.067          43.000    25459366.046   102514304.541        1219.963          42.500  
E31  25102691.819   131915523.921        1603.042          35.000    25102703.336   101078175.483        1228.292          36.750  
E33  23309070.574   122489987.146        3497.311          50.000    23309077.409    93855995.846        2679.751          45.750  
G 1  22256464.944                        6694.171          22.250    22256471.262                        5215.083          22.500                                                                  
G 2  21478216.169   112868785.123        5175.110          48.000                                                                    21478217.769    87949729.287        4032.551          34.250  
G 8  20166951.810   105978713.045        3416.909          50.000    20166957.658    82580766.094        2662.463          43.250    20166957.792    82580320.098        2662.529          49.000  
G10  21513935.484   113057350.481        1946.378          50.250    21513941.668    88096546.857        1516.698          45.500    21513941.337    88096099.858        1516.661          50.000  
G14  24116723.768   126734286.466        6411.896          39.500    24116729.097    98753973.014        4996.296          35.000    24116729.491    98753979.003        4996.271          19.250  
G21  20853568.128   109586235.183        4806.476          50.250                                                                    20853571.078    85391894.148        3745.304          37.250  
G23                                                                  24018880.006    98353298.027         254.768          32.000                                                                  
G27  21249720.421   111667670.677        1206.758          48.750    21249727.316    87014701.951         940.254          43.500    21249768.661    87014500.374         940.451          14.000  
G32  23728872.421   124696085.982        6219.044          42.750    23728883.895    97165860.674        4845.831          39.250    23728884.852    97165851.609        4846.000          37.500  
R 2  23785207.046   126922436.527          -2.418          37.750                                                                  
R 3  20641963.292   110498134.195        2932.365          50.000    20641970.433    85942897.453        2280.754          44.000  
R 4  20708706.319   110894207.387        6849.689          48.750    20708713.819    86251083.510        5327.509          45.000  
R 9  22261821.789                         208.184          25.750    22261834.269                         161.627          26.500  
R10  21494528.669   114577929.424        2861.662          36.000                                                                  
R11  23347090.396   124759793.612        6492.850          38.750    23347100.172    97035416.224        5050.115          39.500  
R18  21604245.090   115324933.552         966.567          45.500    21604256.661    89697785.219         751.803          45.250  
R19  19505590.339   104341756.099        3244.576          39.250    19505598.696    81154736.536        2523.518          43.250  
R20  21543878.245   115204787.687        6650.255          27.500    21543884.401    89603792.842        5172.240          28.000  
> 2023  6  6 12 56 10.0000000  0 25                     
E 7  26247469.819   137931504.096        4142.234          42.500    26247477.463   105687734.007        3173.707          36.500  
E 8                                                                  28389423.606   114312460.597        1408.163          32.750  
E12  25355535.033                        5689.942          26.750    25355552.456                        4360.166          31.250  
E24  25283362.949   132864972.813        4220.248          39.500    25283371.147   101805655.247        3233.621          38.750  
E26  25459053.889   133788225.270        1592.909          42.000    25459062.888   102513084.239        1220.586          43.250  
E31  25102386.698   131913920.789        1603.536          36.250    25102398.188   101076947.079        1228.537          38.000  
E33  23308405.018   122486489.535        3498.032          49.500    23308412.031    93853315.863        2680.294          46.000  
G 1  22255192.370                        6692.560          28.500    22255194.225                        5213.807          21.250                                                                  
G 2  21477231.316   112863609.741        5175.693          47.750                                                                    21477232.961    87945696.526        4033.008          34.250  
G 8  20166301.524   105975296.005        3417.288          49.750    20166307.578    82578103.464        2662.770          43.250    20166307.533    82577657.466        2662.822          49.000  
G10  21513564.996   113055403.958        1946.742          50.250    21513571.252    88095030.093        1516.885          45.750    21513570.934    88094583.081        1516.950          50.000  
G14  24115504.021   126727874.330        6412.119          39.500    24115508.841    98748976.500        4996.738          35.500    24115509.373    98748982.539        4996.461          19.250  
G21  20852653.412   109581428.436        4807.130          50.250                                                                    20852656.390    85388148.632        3745.817          37.500  
G23                                                                  24018817.685    98353043.057         255.424          32.500                                                                  
G27  21249490.763   111666463.808        1207.179          48.250    21249497.815    87013761.536         940.611          43.500    21249538.716    87013559.847         940.737          14.250  
G32  23727689.185   124689866.818        6219.603          41.750    23727700.672    97161014.532        4846.406          39.500    23727701.401    97161005.524        4846.440          37.750  
R 2  23785207.395   126922438.670          -1.483          38.000    23785229.325                          -2.247          24.500  
R 3  20641415.697   110495201.849        2932.280          50.250    20641422.525    85940616.740        2280.810          43.250  
R 4  20707427.171   110887357.685        6849.814          49.000    20707434.635    86245755.962        5327.748          45.000  
R 9  22261781.165                         207.473          25.250    22261795.339                         161.559          26.750  
R10  21493992.696   114575067.868        2861.597          38.250                                                                  
R11  23345874.580   124753300.763        6492.841          39.500    23345885.613    97030366.269        5050.067          41.000  
R18  21604063.578   115323966.714         967.348          45.250    21604075.654    89697033.248         752.311          44.250  
R19  19504983.902   104338511.368        3245.180          38.750    19504992.139    81152212.850        2523.917          43.500  
R20                                                                  21542641.196    89598620.555        5172.181          28.750  
> 2023  6  6 12 56 11.0000000  0 25                     
E 7  26246681.472   137927362.686        4140.814          41.750    26246689.393   105684560.652        3173.380          35.500  
E 8                                                                  28389074.230   114311052.755        1407.535          33.250  
E12  25354452.122                        5689.958          26.000    25354469.062                        4360.215          31.500  
E24  25282559.801   132860753.193        4219.343          39.250    25282567.946   101802422.044        3232.828          39.250  
E26  25458750.413   133786632.678        1592.380          41.750    25458759.918   102511863.959        1220.093          43.750  
E31  25102082.038   131912317.845        1602.673          37.500    25102093.170   101075718.851        1227.798          37.500  
E33  23307739.394   122482992.037        3497.192          49.500    23307746.667    93850635.967        2679.598          46.500  
G 1  22253921.065                        6692.705          28.500    22253921.369                        5214.663          22.250                                                                  
G 2  21476246.352   112858434.548        5174.904          47.500                                                                    21476248.185    87941663.910        4032.388          34.500  
G 8  20165651.363   105971879.361        3416.170          50.250    20165657.668    82575441.163        2661.878          43.250    20165657.351    82574995.146        2661.942          49.000  
G10  21513194.688   113053457.817        1945.686          50.250    21513200.930    88093513.607        1516.174          45.750    21513200.608    88093066.603        1516.123          50.250  
G14  24114284.350   126721462.472        6411.428          39.250    24114289.165    98743980.309        4996.151          36.000    24114289.389    98743986.276        4995.914          19.250  
G21  20851738.688   109576621.902        4806.182          50.250                                                                    20851741.733    85384403.281        3745.074          37.500  
G23                                                                  24018755.798    98352788.168         254.731          33.000                                                                  
G27  21249261.074   111665257.204        1206.150          48.250    21249268.188    87012821.326         939.994          43.500    21249308.830    87012619.567         939.979          13.250  
G32  23726505.913   124683647.841        6218.724          41.250    23726517.548    97156168.607        4845.475          39.750    23726517.977    97156159.570        4845.756          37.750  
R 2  23785208.316   126922441.097          -2.726          37.750                                                                  
R 3  20640868.268   110492270.316        2930.843          50.000    20640875.153    85938336.636        2279.677          43.000  
R 4  20706148.064   110880508.565        6848.390          48.750    20706155.648    86240428.869        5326.846          46.000  
R 9  22261741.899                         207.065          26.250    22261756.888                         161.217          27.000  
R10  21493456.298   114572207.083        2860.213          38.250                                                                  
R11  23344660.065   124746808.486        6491.973          40.500    23344671.567    97025316.712        5049.137          41.250  
R18  21603882.491   115322999.986         966.363          45.500    21603894.656    89696281.329         751.615          44.500  
R19  19504377.465   104335266.954        3244.091          38.750    19504385.617    81149689.425        2523.097          43.250  
R20                                                                  21541397.020    89593448.360        5171.883          28.250  
> 2023  6  6 12 56 12.0000000  0 25                     
E 7  26245893.134   137923221.858        4140.637          41.500    26245901.252   105681387.866        3172.705          35.750  
E 8                                                                  28388724.884   114309645.320        1407.170          33.500  
E12  25353369.690                        5689.393          25.500    25353385.753                        4359.700          31.750  
E24  25281756.818   132856534.194        4218.885          38.500    25281764.958   101799189.326        3232.466          39.500  
E26  25458447.032   133785040.352        1592.236          41.250    25458456.952   102510643.869        1219.981          43.500  
E31  25101777.310   131910715.435        1602.304          34.500    25101788.683   101074491.039        1227.712          37.250  
E33  23307073.928   122479494.921        3497.025          49.750    23307081.299    93847956.370        2679.479          46.750  
G 1                                                                  22252649.523                        5214.547          24.750                                                                  
G 2  21475261.472   112853259.792        5174.590          47.000                                                                    21475263.493    87937631.634        4032.153          34.500  
G 8  20165001.333   105968463.419        3415.647          50.000    20165007.932    82572779.403        2661.498          43.750    20165007.306    82572333.380        2661.536          49.250  
G10  21512824.460   113051512.342        1945.223          50.500    21512830.496    88091997.644        1515.775          45.500    21512830.416    88091550.646        1515.764          50.250  
G14  24113064.071   126715051.229        6410.962          39.000    24113068.730    98738984.528        4995.582          34.000    24113069.436    98738990.516        4995.547          19.250  
G21  20850824.027   109571815.877        4805.860          50.000                                                                    20850827.184    85380658.331        3744.821          37.750  
G23                                                                  24018694.442    98352533.577         254.325          35.000                                                                  
G27  21249031.532   111664051.181        1205.759          47.750    21249038.659    87011881.546         939.651          43.750    21249079.052    87011679.734         939.635          14.750  
G32  23725322.798   124677429.374        6218.383          42.750    23725334.285    97151323.050        4845.364          40.750    23725334.643    97151314.016        4845.487          38.000  
R 2  23785208.817   126922443.991          -3.103          36.750                                                                  
R 3  20640320.901   110489339.858        2929.980          50.500    20640327.393    85936057.426        2278.762          42.000  
R 4  20704869.081   110873660.270        6847.912          48.750    20704876.845    86235102.437        5326.116          45.500  
R 9  22261703.958                         206.402          25.250    22261718.736                         160.894          24.750  
R10  21492919.444   114569347.269        2859.359          36.250                                                                  
R11  23343445.599   124740316.987        6491.227          40.750    23343456.735    97020267.793        5048.610          41.500  
R18  21603701.748   115322033.673         966.172          46.000    21603713.627    89695529.728         751.399          44.000  
R19  19503771.105   104332023.123        3243.561          38.750    19503779.184    81147166.448        2522.751          43.000  
R20  21540149.341                        6649.498          27.500    21540153.310    89588276.301        5172.010          28.500  
> 2023  6  6 12 56 13.0000000  0 25                     
E 7  26245104.975   137919081.433        4139.411          42.250    26245113.450   105678215.294        3172.294          36.750  
E 8                                                                  28388375.100   114308238.067        1406.462          33.250  
E12  25352286.171                        5690.329          25.250    25352302.852                        4359.619          30.000  
E24  25280953.961   132852315.679        4217.331          38.000    25280962.034   101795956.879        3231.571          39.250  
E26  25458143.851   133783447.975        1591.753          41.750    25458153.919   102509423.742        1219.628          43.000  
E31  25101472.529   131909113.288        1601.281          34.000    25101484.130   101073263.364        1226.867          36.750  
E33  23306408.564   122475997.914        3496.121          50.000    23306415.912    93845276.827        2678.875          46.250  
G 1                                                                  22251373.416                        5215.308          24.750                                                                  
G 2  21474276.727   112848085.191        5173.574          47.750                                                                    21474278.820    87933599.482        4031.350          34.250  
G 8  20164351.391   105965047.933        3414.380          50.000    20164357.986    82570117.976        2660.586          43.500    20164357.356    82569671.971        2660.547          49.500  
G10  21512454.201   113049567.267        1943.949          50.250    21512460.393    88090481.994        1514.803          46.000    21512460.291    88090035.001        1514.768          50.250  
G14  24111844.275   126708640.521        6408.667          34.000    24111849.529    98733989.150        4995.461          31.000    24111849.533    98733995.194        4993.644          18.250  
G21  20849909.379   109567010.078        4804.910          50.000                                                                    20849912.670    85376913.557        3744.085          38.000  
G23                                                                  24018632.528    98352278.968         254.167          34.250                                                                  
G27  21248801.932   111662845.418        1204.773          48.250    21248809.296    87010941.986         938.664          43.250    21248849.259    87010740.105         938.873          15.500  
G32  23724139.575   124671211.121        6217.298          41.500    23724151.062    97146477.658        4844.806          40.250    23724151.340    97146468.632        4844.637          38.000  
R 2  23785210.355   126922447.211          -4.252          37.750                                                                  
R 3  20639773.726   110486410.182        2928.478          50.250    20639779.503    85933778.796        2277.761          42.250  
R 4  20703590.171   110866812.521        6846.623          49.000    20703597.858    86229776.417        5325.217          45.250  
R 9  22261667.652                         205.832          23.250    22261677.373                         160.681          24.250  
R10  21492382.872   114566488.274        2857.806          35.750                                                                  
R11  23342231.013   124733826.114        6489.818          38.750    23342241.661    97015219.346        5047.725          37.500  
R18  21603521.045   115321067.478         965.132          46.500    21603532.218    89694778.238         750.833          43.750  
R19  19503164.779   104328779.574        3242.456          38.750    19503172.899    81144643.698        2521.820          43.250  
R20  21538906.158                        6651.132          23.000    21538909.788    89583104.257        5172.245          28.250  
> 2023  6  6 12 56 14.0000000  0 25                     
E 7  26244317.361   137914941.635        4139.073          42.500    26244326.118   105675043.244        3171.283          37.500  
E 8                                                                  28388025.876   114306831.215        1406.349          33.250  
E12  25351202.786                        5689.313          24.500    25351219.776                        4359.459          30.000  
E24  25280150.822   132848097.622        4217.586          33.500    25280159.422   101792724.875        3231.541          37.000  
E26  25457840.930   133781855.881        1591.416          42.500    25457850.975   102508203.838        1219.394          43.000  
E31  25101167.743   131907511.644        1601.130          36.750    25101179.519   101072036.154        1226.797          37.250  
E33  23305743.316   122472501.311        3496.090          50.000    23305750.441    93842597.620        2678.712          46.000  
G 1  22250112.535                        6691.238          36.000    22250099.370                        5214.866          26.250                                                                  
G 2  21473291.946   112842911.053        5173.571          46.000                                                                    21473294.218    87929567.687        4031.357          34.250  
G 8  20163701.638   105961633.160        3413.965          49.750    20163708.403    82567457.099        2660.222          43.000    20163707.540    82567011.113        2660.229          49.250  
G10  21512083.879   113047622.844        1943.709          49.750    21512090.318    88088966.869        1514.588          45.750    21512090.309    88088519.863        1514.579          50.500  
G14  24110624.524                        6409.533          31.000                                                                                                                                  
G21  20848994.825   109562204.771        4804.630          49.500                                                                    20848998.254    85373169.162        3743.865          38.000  
G23  24018584.678                         325.613          22.250    24018570.610    98352024.706         253.506          33.250                                                                  
G27  21248572.471   111661640.226        1204.524          48.250    21248580.063    87010002.867         938.492          43.250    21248619.494    87009800.909         938.692          16.500  
G32  23722956.165   124664993.391        6216.931          40.750    23722967.759    97141632.657        4844.543          39.500    23722968.135    97141623.649        4844.351          37.750  
R 2  23785210.927   126922450.968          -4.490          36.750                                                                  
R 3  20639226.485   110483481.598        2927.593          50.000    20639232.181    85931500.985        2277.078          42.750  
R 4  20702311.434   110859965.568        6846.215          49.000    20702319.510    86224451.017        5324.687          44.750  
R 9  22261628.074                         205.739          32.750    22261637.330                         160.140          29.250  
R10  21491846.268   114563630.159        2857.091          36.750                                                                  
R11  23341017.173   124727335.862        6489.251          40.500    23341027.110    97010171.470        5047.391          37.000  
R18  21603340.423   115320101.679         965.273          45.750    21603351.144    89694027.077         750.588          43.250  
R19  19502558.177   104325536.615        3242.232          38.500    19502566.909    81142121.425        2521.652          42.500  
R20  21537661.057                        6649.791          28.500    21537666.940    89577932.570        5170.038          26.750  
> 2023  6  6 12 56 15.0000000  0 25                     
E 7  26243529.662   137910802.455        4138.486          41.250    26243538.907   105671871.668        3171.066          37.500  
E 8                                                                  28387676.821   114305424.690        1406.215          32.000  
E12  25350121.221                        5689.632          26.750    25350136.234                        4359.292          30.250  
E24  25279348.850   132843880.284        4217.398          31.750    25279356.753   101789493.463        3231.042          36.000  
E26  25457538.170   133780263.957        1591.652          43.000    25457547.992   102506984.038        1219.401          42.000  
E31  25100862.268   131905910.425        1600.568          32.250    25100874.840   101070809.252        1226.580          35.500  
E33  23305078.068   122469005.034        3495.743          49.750    23305085.041    93839918.647        2678.545          44.750  
G 1  22248838.650                        6690.752          35.500    22248826.845                        5213.858          27.500                                                                  
G 2  21472307.384   112837737.306        5173.214          46.750                                                                    21472309.696    87925536.198        4031.067          34.000  
G 8  20163051.871   105958218.993        3413.492          48.750    20163058.842    82564796.706        2659.898          43.000    20163057.826    82564350.721        2659.862          49.000  
G10  21511713.660   113045679.025        1943.207          49.500    21511720.322    88087452.213        1514.159          44.000    21511720.438    88087005.194        1514.189          50.250  
G14  24109403.596                        6408.797          32.750    24109412.646                        4994.988          25.250                                                                  
G21  20848080.450   109557399.895        4804.347          49.000                                                                    20848083.919    85369425.101        3743.642          37.750  
G23  24018522.326                         325.180          23.250    24018507.891    98351770.726         253.596          33.500                                                                  
G27  21248343.287   111660435.497        1204.218          48.250    21248350.669    87009064.144         938.287          42.750    21248390.122    87008862.105         938.312          16.000  
G32  23721773.090   124658776.060        6216.275          40.500    23721784.085    97136788.003        4843.986          38.000    23721784.988    97136778.974        4843.853          37.250  
R 2  23785211.728                          -4.900          37.000                                                                  
R 3  20638679.672   110480553.951        2926.863          50.000    20638685.132    85929223.925        2276.450          42.250  
R 4  20701032.885   110853119.340        6845.593          49.250    20701041.194    86219126.195        5324.245          44.000  
R 9  22261589.971                         205.331          31.000    22261600.591                         159.632          26.750  
R10  21491309.387   114560773.165        2856.482          35.750                                                                  
R11  23339803.503   124720846.524        6488.833          41.250    23339812.738    97005124.158        5046.502          36.000  
R18  21603159.689   115319136.204         964.963          46.000    21603170.057    89693276.116         750.561          43.250  
R19  19501951.722   104322294.240        3241.595          38.250    19501960.928    81139599.515        2521.530          42.750  
R20  21536418.112                        6648.655          28.750    21536422.608    89572761.037        5170.896          25.250  
> 2023  6  6 12 56 16.0000000  0 25                     
E 7  26242742.156   137906663.726        4138.604          43.250    26242751.432   105668700.449        3170.856          35.250  
E 8                                                                  28387327.538   114304018.469        1405.993          32.750  
E12  25349037.993                        5688.201          23.000    25349053.091                        4359.137          28.500  
E24  25278547.065   132839663.445        4216.512          34.000    25278554.338   101786262.329        3230.827          34.750  
E26  25457235.289   133778672.180        1591.702          43.500    25457244.959   102505764.344        1219.647          42.750  
E31  25100555.971   131904309.606        1601.515          24.750    25100570.367   101069582.698        1226.194          36.500  
E33  23304412.717   122465509.007        3495.967          50.000    23304419.677    93837239.816        2679.066          45.750  
G 1  22247565.838                        6691.027          32.750    22247555.781                        5212.999          24.750                                                                  
G 2  21471322.957   112832563.821        5173.400          48.000                                                                    21471325.232    87921504.916        4031.224          33.500  
G 8  20162402.189   105954805.396        3413.602          50.000    20162409.396    82562136.749        2659.937          43.250    20162408.220    82561690.770        2659.955          49.000  
G10  21511343.722   113043735.709        1943.014          50.250    21511350.559    88085937.963        1514.038          44.250    21511350.649    88085490.925        1514.030          50.000  
G14  24108183.907                        6409.285          32.000    24108193.110                        4993.124          22.250                                                                  
G21  20847166.097   109552595.367        4804.401          48.750                                                                    20847169.651    85365681.313        3743.691          37.250  
G23                                                                  24018445.834    98351516.933         253.448          33.000                                                                  
G27  21248114.210   111659231.220        1204.317          47.750    21248121.521    87008125.764         938.105          43.250    21248160.799    87007923.669         938.476          15.750  
G32  23720589.778   124652559.101        6216.801          41.250    23720601.466    97131943.643        4844.184          38.000    23720601.904    97131934.600        4844.249          36.750  
R 2  23785212.260                          -4.665          37.000                                                                  
R 3  20638132.896   110477627.232        2926.319          50.750    20638138.064    85926947.580        2276.236          41.000  
R 4  20699754.507   110846273.838        6844.903          48.750    20699762.976    86213801.940        5323.893          44.000  
R 9                                                                  22261562.019                         159.295          26.500  
R10  21490773.208   114557916.948        2855.936          35.500                                                                  
R11  23338589.381   124714357.944        6488.366          38.500    23338598.160    97000077.449        5046.864          34.250  
R18  21602978.736   115318170.982         965.412          45.750    21602989.108    89692525.367         750.690          43.750  
R19  19501346.126   104319052.278        3241.853          38.000    19501354.518    81137078.007        2521.532          41.750  
R20  21535174.258                        6648.535          30.250    21535180.016    89567589.716        5170.567          25.500  
> 2023  6  6 12 56 17.0000000  0 25                     
E 7  26241954.883   137902525.292        4139.726          42.250    26241964.082   105665529.444        3171.843          36.500  
E 8                                                                  28386977.874   114302612.316        1406.806          31.500  
E12  25347958.072                        5688.551          23.000    25347971.150                        4359.308          25.750  
E24  25277744.282   132835446.869        4215.555          31.250    25277751.745   101783031.423        3232.527          30.500  
E26  25456933.028   133777080.225        1592.908          43.500    25456941.967   102504544.622        1219.861          42.750  
E31  25100251.415   131902708.985        1601.110          32.500    25100265.888   101068356.217        1227.184          35.500  
E33  23303747.538   122462012.971        3496.735          48.750    23303754.370    93834561.063        2679.276          43.000  
G 1  22246293.833                        6690.822          28.750                                                                                                                                  
G 2  21470338.667   112827390.472        5173.994          43.250                                                                    21470340.775    87917473.729        4031.683          32.500  
G 8  20161752.946   105951392.113        3413.560          48.500    20161759.890    82559477.054        2660.181          41.000    20161758.696    82559031.065        2659.910          48.500  
G10  21510973.968   113041792.654        1943.896          48.250    21510980.919    88084423.928        1514.662          43.250    21510980.916    88083976.868        1514.719          49.250  
G14  24106966.083                        6404.915          26.000    24106975.374                        4993.695          26.250                                                                  
G21  20846251.925   109547790.990        4805.175          45.750                                                                    20846255.395    85361937.639        3744.290          36.000  
G23  24018378.204                         323.971          22.750    24018383.831    98351263.061         254.482          32.250                                                                  
G27  21247885.245   111658027.140        1204.663          48.750    21247892.373    87007187.455         938.822          41.000    21247931.288    87006985.415         938.719          16.000  
G32  23719406.502   124646342.250        6218.589          40.250    23719417.988    97127099.460        4842.804          37.500    23719418.840    97127090.300        4845.640          36.000  
R 2  23785213.515                          -4.756          36.250    23785254.599                          -4.507          25.500  
R 3  20637586.037   110474701.203        2927.178          49.500    20637591.875    85924671.807        2275.400          39.000  
R 4  20698476.446   110839428.782        6845.622          48.500    20698484.779    86208477.992        5324.303          43.250  
R 9  22261515.400                         203.060          22.500    22261523.071                         158.949          25.750  
R10  21490238.186                        2856.065          33.500                                                                  
R11  23337375.364   124707869.689        6488.510          41.750    23337384.143    96995031.089        5046.215          36.500  
R18  21602797.680   115317205.794         965.856          44.500    21602808.441    89691774.727         750.346          42.500  
R19  19500740.268   104315810.462        3242.845          38.750    19500748.647    81134556.631        2521.638          41.750  
R20  21533933.190                        6648.242          29.250                                                                  
> 2023  6  6 12 56 18.0000000  0 25                     
E 7  26241167.505   137898387.080        4138.310          43.000    26241176.507   105662358.582        3170.975          36.000  
E 8                                                                  28386628.779   114301206.334        1405.854          32.250  
E12  25346873.860                        5688.278          21.250    25346888.253                        4359.117          28.750  
E24  25276940.979   132831230.586        4215.744          36.750    25276949.478   101779800.779        3230.716          38.750  
E26  25456630.298   133775488.205        1591.889          43.500    25456638.905   102503324.669        1219.973          43.000  
E31  25099947.073   131901108.416        1599.802          32.750    25099961.163   101067129.805        1226.043          36.250  
E33  23303082.344   122458516.919        3496.019          50.000    23303089.076    93831882.282        2679.002          46.000  
G 1  22245021.474                        6691.276          33.500    22245014.619                        5213.771          27.250                                                                  
G 2  21469354.227   112822217.142        5173.046          48.000                                                                    21469356.279    87913442.556        4030.945          32.250  
G 8  20161103.617   105947979.142        3412.678          50.250    20161110.556    82556817.612        2659.258          44.000    20161109.237    82556371.606        2659.230          48.500  
G10  21510604.144   113039849.968        1942.543          49.750    21510611.306    88082910.091        1513.780          45.250    21510611.267    88082463.087        1513.682          49.250  
G14  24105748.194                        6408.273          35.500    24105751.392                        4993.746          24.250                                                                  
G21  20845337.767   109542986.683        4804.143          49.750                                                                    20845341.151    85358194.017        3743.487          35.750  
G23  24018318.986                         325.730          24.500    24018321.046    98351009.232         253.631          31.500                                                                  
G27  21247656.021   111656823.202        1203.808          48.750    21247663.294    87006249.338         938.152          43.000    21247701.841    87006047.309         937.982          18.750  
G32  23718222.923   124640125.474        6216.629          40.750    23718235.289    97122255.073        4844.479          38.250    23718235.757    97122246.060        4844.119          35.500  
R 2  23785214.913                          -4.943          37.750    23785257.054                          -4.203          25.250  
R 3  20637039.392   110471775.829        2924.926          50.000    20637044.935    85922396.547        2274.829          42.500  
R 4  20697198.372   110832584.131        6844.373          49.250    20697206.490    86203154.397        5323.414          45.000  
R 9  22261476.962                         204.706          28.000    22261485.232                         159.512          28.250  
R10  21489703.446                        2854.141          37.250                                                                  
R11  23336161.538   124701381.798        6487.877          41.750    23336168.997    96989984.984        5045.654          37.250  
R18  21602616.355   115316240.599         965.277          44.250    21602627.729    89691023.954         750.771          44.250  
R19  19500134.250   104312568.930        3241.392          38.750    19500142.765    81132035.401        2521.204          43.000  
R20                                                                  21532698.911                        5172.637          23.750  
> 2023  6  6 12 56 19.0000000  0 25                     
E 7  26240380.343   137894249.471        4137.531          43.000    26240388.617   105659188.265        3170.441          36.000  
E 8  28386270.578                        1835.663          21.750    28386279.734   114299800.697        1405.789          33.500  
E12  25345791.832                        5691.551          22.750    25345806.103                        4361.264          28.750  
E24  25276138.582   132827014.840        4215.448          39.250    25276147.416   101776570.536        3229.984          39.250  
E26  25456327.246   133773896.342        1591.912          42.500    25456335.914   102502104.907        1219.832          44.250  
E31  25099643.246   131899508.186        1600.354          35.500    25099656.600   101065903.819        1225.734          37.250  
E33  23302417.256   122455021.218        3495.790          50.250    23302423.804    93829203.779        2678.336          46.250  
G 1  22243748.378   116891673.6311       6690.919          32.750    22243740.691                        5215.448          25.500                                                                  
G 2  21468369.848   112817044.184        5172.834          48.000                                                                    21468371.887    87909411.680        4030.777          32.750  
G 8  20160454.515   105944566.833        3412.125          50.750    20160461.146    82554158.671        2658.817          43.500    20160459.908    82553712.670        2658.795          48.750  
G10  21510234.456   113037907.831        1942.040          49.000    21510241.762    88081396.722        1513.217          46.000    21510241.709    88080949.730        1513.278          49.500  
G14  24104529.993   126670152.1691       6408.510          30.500    24104531.973                        4994.919          30.500                                                                  
G21  20844423.624   109538182.813        4803.786          49.500                                                                    20844427.004    85354450.751        3743.193          36.000  
G23                                                                  24018258.003    98350755.616         253.708          32.500                                                                  
G27  21247427.100   111655619.741        1203.423          49.000    21247434.268    87005311.592         937.783          43.750    21247472.053    87005109.572         937.751          20.250  
G32  23717040.186   124633909.158        6215.906          40.500    23717052.232    97117411.215        4843.636          38.750    23717052.760    97117402.183        4843.558          35.750  
R 2  23785216.231                          -5.479          36.250                                                                  
R 3  20636492.834   110468851.513        2923.883          50.000    20636498.253    85920122.017        2274.387          43.000  
R 4  20695920.341   110825740.252        6843.904          50.000    20695928.448    86197831.401        5322.644          45.250  
R 9  22261437.140                         206.522          29.750    22261447.742                         158.632          30.750  
R10  21489167.865   114549352.760        2853.423          38.000                                                                  
R11  23334947.647   124694894.783        6486.896          40.250    23334955.219    96984939.568        5044.750          36.250  
R18  21602435.442   115315275.677         964.966          44.250    21602447.116    89690273.458         750.171          44.250  
R19  19499528.434   104309327.874        3240.829          38.500    19499536.786    81129514.553        2520.903          43.250  
R20  21531447.568                        6648.339          30.250    21531452.659                        5173.122          28.750  
> 2023  6  6 12 56 20.0000000  0 25                     
E 7  26539386.395   139465536.428        4137.095          44.250    26539394.298   106863161.412        3170.161          35.750  
E 8  28685714.219                        1839.109          19.500    28685723.450   115505536.657        1405.569          33.500  
E12  25644503.875                        5691.495          20.250    25644517.712                        4359.116          27.250  
E24  25575129.989   134398223.847        4215.051          40.750    25575138.787   102980483.915        3229.525          41.250  
E26  25755817.306   135347726.123        1591.694          44.250    25755825.764   103708026.441        1219.740          42.500  
E31  25399133.467   133473330.112        1599.718          28.500    25399144.532   102271819.289        1225.485          34.500  
E33  23601545.258   124026949.220        3495.355          51.000    23601551.663    95033668.071        2678.297          45.500  
G 1  22542269.286   118460409.748        6690.742          31.750    22542261.491                        5213.283          26.000                                                                  
G 2  21767179.090   114387296.661        5172.608          48.250                                                                    21767181.008    89132985.041        4030.610          33.000  
G 8  20459598.561   107516578.457        3411.305          50.500    20459604.982    83779102.773        2658.365          43.750    20459603.775    83778656.797        2658.159          49.000  
G10  21809657.893   114611388.097        1941.451          50.000    21809665.128    89307485.250        1512.770          45.750    21809665.065    89307038.248        1512.815          49.500  
G14  24403105.069   128239170.454        6407.766          37.000    24403107.752                        4993.351          26.750                                                                  
G21  21143302.963   111108804.065        4803.466          49.500                                                                    21143306.276    86578311.477        3742.956          36.250  
G23                                                                  24317987.849    99578102.396         253.473          32.250                                                                  
G27  21546990.965   113229837.905        1202.948          48.750    21546998.038    88231975.073         937.593          42.750    21547035.054    88231773.076         937.360          21.750  
G32  24015650.678   126203119.276        6215.595          40.250    24015662.706    98340172.392        4843.522          39.250    24015663.480    98340163.319        4843.326          35.750  
R 2  24085009.967                          -5.850          35.500                                                                  
R 3  20935739.674   112070743.468        2922.950          50.750    20935744.981    87166038.063        2273.387          42.000  
R 4  20994436.070   112424278.905        6843.015          49.000    20994444.347    87441139.227        5322.040          45.000  
R 9  22561191.464                         203.979          30.250    22561204.508                         158.414          30.250  
R10  21788425.092   116144565.093        2852.697          40.500                                                                  
R11  23633525.071   126290415.104        6487.106          31.750    23633535.907    98225899.686        5045.317          36.000  
R18  21902046.903   116914624.424         964.711          43.250    21902058.755    90934211.373         750.095          44.000  
R19  19798715.385   105909777.972        3240.414          39.750    19798724.113    82374309.079        2520.538          42.000  
R20  21829996.163                        6648.509          29.500    21830002.972                        5170.593          29.750  
> 2023  6  6 12 56 21.0000000  0 25                     
E 7  26538599.286   139461399.317        4137.510          44.000    26538607.033   106859991.414        3170.291          37.750  
E 8  28685364.886                        1833.834          21.250    28685374.413   115504131.176        1406.275          33.000  
E12  25643418.987                        5692.389          18.500    25643436.044                        4359.625          27.000  
E24  25574327.901   134394008.584        4215.780          40.750    25574336.819   102977254.068        3230.295          40.750  
E26  25755514.402   135346133.996        1592.723          44.500    25755522.851   103706806.501        1220.443          43.250  
E31  25398826.745   133471730.448        1601.384          24.750    25398839.800   102270593.462        1226.406          35.250  
E33  23600880.095   124023453.499        3496.247          50.750    23600886.415    95030989.538        2678.962          46.000  
G 1  22540995.745   118453718.974        6691.397          32.750    22540986.337                        5214.086          23.250                                                                  
G 2  21766194.667   114382123.820        5173.394          48.250                                                                    21766196.670    89128954.258        4031.212          33.500  
G 8  20458949.438   107513166.728        3412.136          50.500    20458955.939    83776444.303        2658.690          44.500    20458954.549    83775998.306        2658.808          49.000  
G10  21809288.604   114609446.469        1941.997          50.250    21809295.759    89305972.299        1513.299          45.500    21809295.611    89305525.293        1513.239          49.750  
G14  24401884.482   128232762.431        6408.536          38.750    24401886.659                        4993.355          32.750                                                                  
G21  21142388.775   111104000.402        4804.231          49.250                                                                    21142392.138    86574568.364        3743.548          36.250  
G23                                                                  24317925.528    99577848.710         254.186          32.750                                                                  
G27  21546761.964   113228634.804        1203.556          48.500    21546769.091    88231037.605         937.824          43.500    21546805.302    88230835.593         937.822          22.750  
G32  24014468.515   126196903.203        6216.467          42.250    24014480.176    98335328.676        4843.967          39.500    24014480.574    98335319.638        4843.994          35.750  
R 2  24085011.000   128522237.031          -5.488          35.250                                                                  
R 3  20935193.537   112067820.473        2923.090          50.750    20935198.915    87163764.597        2273.597          42.750  
R 4  20993158.062   112417435.917        6843.315          49.000    20993166.505    87435816.873        5322.559          45.750  
R 9  22561154.167                         203.520          29.000                                                                  
R10  21787889.722   116141712.530        2852.890          39.250                                                                  
R11  23632309.599   126283928.958        6486.639          34.750    23632323.212    98220854.857        5044.979          37.250  
R18  21901865.592   116913659.531         965.499          43.000    21901877.833    90933460.891         750.798          44.500  
R19  19798110.495   105906537.303        3241.195          39.500    19798118.337    82371788.556        2520.917          43.250  
R20  21828750.571                        6648.761          28.000    21828758.989                        5171.386          30.500  
> 2023  6  6 12 56 22.0000000  0 25                     
E 7  26537812.022   139457262.794        4136.107          44.000    26537819.920   106856821.845        3169.479          38.500  
E 8  28685013.663                        1831.088          19.500    28685025.345   115502726.082        1405.265          34.000  
E12                                                                  25642354.935                        4359.218          26.000  
E24  25573526.363   134389794.005        4214.064          41.250    25573535.111   102974024.708        3228.848          40.500  
E26  25755211.602   135344542.035        1591.719          43.750    25755219.979   103705586.705        1219.588          43.250  
E31  25398522.608   133470131.054        1598.421          29.500    25398535.322   102269367.974        1225.405          35.750  
E33  23600214.990   124019958.102        3494.977          50.500    23600221.091    95028311.248        2677.947          45.000  
G 1  22539722.375   118447028.589        6689.692          32.500    22539713.838                        5212.003          22.750                                                                  
G 2  21765210.360   114376951.354        5172.183          48.500                                                                    21765212.385    89124923.762        4030.275          33.750  
G 8  20458300.351   107509755.669        3410.483          50.750    20458307.062    83773786.331        2657.508          44.250    20458305.466    83773340.337        2657.527          49.250  
G10  21808919.494   114607505.469        1940.467          50.500    21808926.505    89304459.823        1512.173          45.750    21808926.273    89304012.828        1512.052          50.000  
G14  24400664.055   128226354.972        6406.822          37.750    24400666.501                        4992.591          32.250                                                                  
G21  21141474.718   111099197.205        4802.822          49.250                                                                    21141478.107    86570825.619        3742.458          36.250  
G23                                                                  24317864.044    99577595.306         253.092          33.750                                                                  
G27  21546533.075   113227432.193        1202.058          48.750    21546540.198    88230100.489         936.891          43.250    21546575.546    88229898.508         936.639          23.000  
G32  24013286.088   126190687.528        6215.010          41.750    24013297.709    98330485.283        4843.189          39.500    24013297.759    98330476.267        4842.843          36.000  
R 2  24085012.006   128522243.393          -7.081          35.250                                                                  
R 3  20934647.605   112064898.490        2921.284          50.750    20934653.471    87161491.939        2271.965          42.750  
R 4  20991880.408   112410593.659        6841.710          49.250    20991888.936    87430495.132        5321.280          46.000  
R 9  22561117.209                         203.294          28.250                                                                  
R10  21787354.263   116138860.910        2851.018          39.750                                                                  
R11  23631095.214   126277443.565        6485.023          35.500    23631109.484    98215810.655        5043.914          37.000  
R18  21901684.500   116912694.973         964.101          43.750    21901697.050    90932710.676         749.892          44.500  
R19  19797504.541   105903297.178        3239.528          39.500    19797513.367    82369268.489        2519.724          43.500  
R20                                                                  21827514.765                        5171.370          28.500  
> 2023  6  6 12 56 23.0000000  0 25                     
E 7  26537024.873   139453126.827        4135.929          43.750    26537033.326   106853652.686        3168.993          38.000  
E 8  28684663.803                        1833.422          25.250    28684676.755   115501321.299        1404.624          32.750  
E12  25641254.628                        5689.723          21.250    25641274.149                        4358.585          26.250  
E24  25572724.614   134385579.958        4213.935          41.250    25572733.371   102970795.751        3228.809          41.000  
E26  25754908.574   135342950.241        1591.902          43.250    25754917.045   103704367.023        1219.810          43.250  
E31  25398219.038   133468532.013        1598.963          29.500    25398230.993   102268142.798        1225.450          35.750  
E33  23599549.872   124016463.013        3495.155          50.750    23599555.830    95025633.202        2678.079          45.500  
G 1  22538449.720   118440338.454        6689.883          30.000    22538438.348                        5212.564          24.250                                                                  
G 2  21764226.142   114371779.249        5172.134          48.500                                                                    21764228.199    89120893.547        4030.238          34.000  
G 8  20457651.415   107506345.204        3410.389          50.750    20457658.078    83771128.831        2657.394          44.750    20457656.504    83770682.831        2657.441          49.500  
G10  21808550.572   114605565.044        1940.399          50.500    21808557.301    89302947.792        1511.983          45.500    21808557.051    89302500.801        1512.004          50.000  
G14  24399444.630   128219947.951        6406.859          39.000    24399447.103                        4989.864          34.000                                                                  
G21  21140560.731   111094394.382        4802.853          49.500                                                                    21140564.156    86567083.158        3742.481          36.250  
G23                                                                  24317803.104    99577342.090         253.272          33.000                                                                  
G27  21546304.226   113226230.038        1202.148          48.500    21546311.331    88229163.767         936.632          42.250    21546345.825    88228961.779         936.711          22.000  
G32  24012103.389   126184472.219        6215.320          42.500    24012115.041    98325642.225        4842.921          39.250    24012115.019    98325633.182        4843.088          36.250  
R 2  24085013.741   128522250.232          -6.973          35.000                                                                  
R 3  20934101.951   112061977.481        2920.729          50.500    20934108.390    87159220.014        2271.715          44.000  
R 4  20990602.812   112403752.128        6841.338          49.000    20990611.362    87425173.959        5320.974          46.000  
R 9  22561080.036                         202.621          28.750                                                                  
R10  21786818.921   116136010.218        2850.405          39.750                                                                  
R11  23629883.172   126270958.712        6485.098          30.000    23629895.872    98210766.861        5043.524          33.000  
R18  21901503.949   116911730.664         964.320          43.250    21901516.267    90931960.676         750.047          43.750  
R19  19796898.904   105900057.567        3239.493          39.000    19796907.833    82366748.781        2519.675          44.000  
R20                                                                  21826272.262                        5170.857          29.000  
> 2023  6  6 12 56 24.0000000  0 25                     
E 7  26536237.599   139448991.395        4135.281          42.500    26536246.602   106850484.035        3168.141          39.000  
E 8  28684315.312                        1832.595          27.250    28684327.977   115499916.890        1404.047          33.250  
E12  25640171.588                        5688.752          23.500    25640193.380                        4358.119          26.250  
E24  25571923.080   134381366.484        4213.041          41.000    25571931.672   102967567.229        3228.167          42.000  
E26  25754605.424   135341358.599        1591.528          42.000    25754614.200   103703147.467        1219.504          42.750  
E31  25397915.527   133466933.566        1598.542          27.750    25397926.668   102266918.050        1224.307          34.750  
E33  23598884.852   124012968.233        3494.433          50.500    23598890.730    95022955.371        2677.632          45.750  
G 1  22537176.443   118433648.707        6689.080          30.000    22537165.483                        5213.285          25.250                                                                  
G 2  21763241.907   114366607.492        5171.381          48.500                                                                    21763244.066    89116863.605        4029.650          34.250  
G 8  20457002.637   107502935.378        3409.348          51.000    20457009.277    83768471.804        2656.685          44.750    20457007.676    83768025.824        2656.639          49.750  
G10  21808181.641   114603625.210        1939.328          50.250    21808188.129    89301436.239        1511.172          46.000    21808187.927    89300989.237        1511.173          50.000  
G14  24398224.763   128213541.423        6405.778          38.000    24398228.375    99906665.1841       4991.918          34.750                                                                  
G21  21139646.844   111089591.989        4802.015          49.000                                                                    21139650.277    86563341.038        3741.828          36.250  
G23  24317757.932                         324.477          26.500    24317742.420    99577089.066         252.854          32.000                                                                  
G27  21546075.628   113225028.387        1201.207          48.500    21546082.550    88228227.400         936.133          42.750    21546116.225    88228025.439         936.019          21.250  
G32  24010920.966   126178257.381        6214.304          42.750    24010932.628    98320799.475        4842.491          39.750    24010932.364    98320790.460        4842.316          36.500  
R 2  24085015.128   128522257.557          -7.864          35.250                                                                  
R 3  20933556.333   112059057.478        2919.321          51.250    20933563.160    87156948.921        2270.526          44.000  
R 4  20989325.184   112396911.339        6840.235          49.250    20989333.717    87419853.336        5320.246          46.250  
R 9  22561043.208                         202.390          29.250                                                                  
R10  21786283.542   116133160.458        2849.168          39.750                                                                  
R11  23628667.597   126264474.916        6481.741          27.000    23628680.700    98205723.908        5041.426          26.000  
R18  21901323.680   116910766.709         963.714          44.000    21901335.895    90931210.871         749.740          43.750  
R19  19796293.496   105896818.460        3238.762          39.250    19796302.340    82364229.500        2518.937          44.250  
R20  21825013.604                        6647.459          27.000    21825028.726                        5170.465          29.000  
> 2023  6  6 12 56 25.0000000  0 25                     
E 7  26535450.374   139444856.482        4134.429          42.750    26535459.945   106847315.755        3168.098          38.000  
E 8  28683967.352                        1830.943          21.750    28683979.106   115498512.765        1404.087          34.500  
E12  25639089.415                        5688.083          22.750    25639112.504                        4358.386          28.250  
E24  25571121.636   134377153.526        4212.603          40.000    25571130.031   102964339.133        3227.830          40.500  
E26  25754302.481   135339767.147        1591.487          43.500    25754311.373   103701927.996        1219.346          43.250  
E31  25397611.984   133465335.516        1597.434          34.000    25397622.427   102265693.484        1224.186          37.000  
E33  23598219.765   124009473.702        3494.381          50.500    23598225.746    95020277.764        2677.434          45.750  
G 1  22535903.770   118426959.222        6688.957          32.250    22535892.412                        5212.202          28.000                                                                  
G 2  21762257.779   114361436.038        5171.202          48.750                                                                    21762259.987    89112833.904        4029.501          34.500  
G 8  20456353.822   107499526.124        3408.858          50.750    20456360.583    83765815.271        2656.184          45.250    20456358.960    83765369.258        2656.263          49.750  
G10  21807812.683   114601685.885        1939.098          50.250    21807819.104    89299925.072        1510.867          46.000    21807818.898    89299478.074        1510.989          50.250  
G14  24397005.079   128207135.397        6405.800          39.500    24397009.523    99901673.452        4991.553          36.750                                                                  
G21  21138733.063   111084789.938        4801.784          50.250                                                                    21138736.488    86559599.186        3741.653          36.500  
G23  24317697.972                         324.381          26.000    24317681.168    99576836.285         252.673          34.750                                                                  
G27  21545847.124   113223827.140        1200.929          48.750    21545853.808    88227291.363         935.723          42.750    21545886.634    88227089.396         935.794          20.250  
G32  24009738.410   126172042.894        6214.440          42.750    24009750.027    98315957.011        4842.250          39.500    24009749.763    98315948.005        4842.420          36.500  
R 2  24085016.353                          -8.627          33.750                                                                  
R 3  20933011.135   112056138.380        2918.561          50.750    20933017.832    87154678.508        2270.006          42.500  
R 4  20988047.794   112390071.245        6839.554          49.750    20988056.433    87414533.281        5319.757          46.000  
R 9  22561004.358                         202.012          28.500                                                                  
R10  21785748.870   116130311.623        2848.448          39.250                                                                  
R11                                                                  23627467.120    98200681.471        5041.778          35.000  
R18  21901143.143   116909803.021         963.298          44.000    21901155.541    90930461.344         749.099          44.750  
R19  19795688.347   105893579.822        3238.369          39.500    19795696.954    82361710.540        2518.749          43.000  
R20                                                                  21823785.914                        5170.135          29.500  
> 2023  6  6 12 56 26.0000000  0 25                     
E 7  26534663.348   139440721.088        4135.214          44.250    26534673.384   106844147.041        3168.943          41.000  
E 8  28683620.185                        1832.629          27.000    28683630.045   115497108.178        1404.622          35.250  
E12  25638008.278                        5686.244          21.750    25638030.080                        4356.197          25.750  
E24  25570319.735   134372941.137        4212.087          40.000    25570328.352   102961111.515        3226.963          40.750  
E26  25753999.439   135338174.758        1592.474          42.000    25754008.349   103700707.871        1219.921          44.000  
E31  25397308.044   133463738.329        1596.461          34.500    25397318.132   102264469.567        1223.172          36.250  
E33  23597554.701   124005979.062        3494.605          49.000    23597560.639    95017599.998        2677.453          46.250  
G 1  22534629.835   118420270.180        6688.672          27.000    22534618.557                        5210.267          27.000                                                                  
G 2  21761273.956   114356265.072        5170.532          49.250                                                                    21761275.995    89108804.581        4028.988          34.500  
G 8  20455705.182   107496117.317        3408.220          51.750    20455711.931    83763159.021        2655.680          45.250    20455710.320    83762713.047        2655.755          50.000  
G10  21807443.187   114599746.249        1939.133          47.500    21807449.412    89298413.613        1511.105          42.000    21807449.818    89297966.667        1511.014          50.000  
G14  24395785.434   128200729.662        6405.549          37.500    24395790.982    99896681.865        4991.981          35.750                                                                  
G21  21137819.635   111079988.365        4801.187          49.500                                                                    21137822.787    86555857.703        3741.179          36.500  
G23  24317637.707                         321.824          30.500    24317619.043    99576582.842         253.683          32.000                                                                  
G27  21545618.512   113222625.989        1200.085          48.000    21545625.237    88226355.448         935.170          44.000    21545657.035    88226153.435         935.058          20.000  
G32  24008555.770   126165828.086        6214.235          45.250    24008567.080    98311114.288        4842.199          39.000    24008567.096    98311105.298        4842.238          36.750  
R 2  24085017.453                          -7.901          35.500                                                                  
R 3  20932465.646   112053219.292        2917.954          49.750    20932472.775    87152408.181        2270.314          44.750  
R 4  20986770.492   112383231.468        6838.820          47.000    20986779.224    87409213.440        5318.975          46.000  
R 9  22560968.627                         198.878          32.000    22560989.494                         156.058          25.750  
R10  21785214.186   116127463.919        2846.718          36.000                                                                  
R11  23626243.612   126251508.530        6482.692          40.250    23626254.988    98195638.912        5042.883          32.500  
R18  21900962.754   116908838.698         964.108          45.750    21900974.788    90929711.288         750.108          44.750  
R19  19795083.183   105890341.058        3238.541          40.750    19795091.476    82359191.496        2519.304          43.750  
R20  21822525.808                        6646.715          34.000    21822544.030                        5167.779          31.750  
> 2023  6  6 12 56 27.0000000  0 25                     
E 7  26533876.191   139436585.373        4135.743          42.250    26533887.112   106840978.159        3168.254          41.250  
E 8  28683273.670                        1831.588          28.750    28683281.330   115495703.034        1404.738          35.500  
E12  25636928.122                        5686.743          26.250                                                                  
E24  25569517.946   134368729.442        4211.575          40.750    25569526.870   102957884.334        3227.134          41.250  
E26  25753696.289   135336582.006        1592.456          43.250    25753705.140   103699487.418        1220.404          43.500  
E31  25397004.766   133462142.224        1596.125          35.750    25397014.409   102263246.655        1222.761          37.500  
E33  23596889.547   124002484.615        3494.241          48.750    23596895.733    95014922.442        2677.406          47.250  
G 1  22533355.527   118413582.256        6688.582          31.750    22533344.413                        5211.487          32.250                                                                  
G 2  21760290.224   114351094.782        5170.206          48.250                                                                    21760292.135    89104775.770        4028.747          34.500  
G 8  20455056.354   107492709.316        3407.480          51.250    20455063.291    83760503.424        2655.536          44.750    20455061.833    83760057.451        2655.181          50.000  
G10  21807073.637   114597806.635        1938.823          48.250    21807079.650    89296902.230        1511.288          43.000    21807080.666    89296455.268        1510.773          49.000  
G14  24394566.396   128194324.095        6405.064          33.750    24394572.476    99891690.689        4991.350          31.750                                                                  
G21  21136906.364   111075187.516        4800.784          49.750                                                                    21136909.222    86552116.792        3740.873          36.250  
G23  24317575.819                         324.142          24.000    24317557.111    99576328.683         253.721          30.750                                                                  
G27  21545390.057   113221425.549        1199.850          48.000    21545396.744    88225420.030         935.135          43.250    21545427.902    88225218.172         934.864          20.000  
G32  24007373.184   126159613.717        6214.003          42.000    24007384.552    98306271.913        4842.173          37.000    24007384.513    98306262.935        4842.079          37.500  
R 2  24085019.359   128522278.849          -7.111          38.250    24085089.721                          -5.847          30.000  
R 3  20931920.321   112050300.522        2917.910          49.750    20931927.982    87150137.951        2269.841          46.000  
R 4  20985493.355   112376392.829        6837.841          49.250    20985502.053    87403894.492        5318.346          45.250  
R 9  22560930.789                         200.055          25.750    22560950.957                         157.629          21.500  
R10  21784678.378   116124617.210        2846.631          37.500                                                                  
R11  23625031.791   126245025.482        6481.829          41.250    23625041.336    98190596.143        5042.654          35.500  
R18  21900782.512   116907874.139         963.571          47.250    21900794.020    90928961.067         749.748          44.500  
R19  19794478.062   105887102.343        3238.397          40.000    19794485.818    82356672.548        2518.567          44.750  
R20  21821285.286                        6646.810          33.250    21821301.129                        5170.324          34.750  
